station_index,latitude,longitude,date_time,time_zone,aqi,city_name,city_url,dominant_pollution,pollution_co,pollution_dew,pollution_h,pollution_o3,pollution_p,pollution_pm10,pollution_pm25,pollution_r,pollution_so2,pollution_t
1,44.150528,-77.3955,2019-10-06 01:00:00,-05:00,25,https://aqicn.org/city/canada/ontario/belleville,,o3,,,,24.8,1022.5,,5,,,10.5
2,43.69875,-79.780917,2019-10-06 01:00:00,-05:00,25,https://aqicn.org/city/canada/ontario/brampton,,pm25,2.8,,,10.4,1015.7,,25,,0.2,11.6
3,43.138611,-80.292639,2019-10-06 01:00:00,-05:00,42,https://aqicn.org/city/canada/ontario/brantford,,pm25,6.6,,,1.6,1018.1,,42,,0.5,
4,43.315111,-79.802639,2019-10-06 01:00:00,-05:00,42,https://aqicn.org/city/canada/ontario/burlington,,pm25,3.7,,86.5,4,981.7,,42,,0.6,11.1
5,42.403694,-82.208306,2019-10-06 01:00:00,-05:00,42,https://aqicn.org/city/canada/ontario/chatham,,pm25,,,,22.4,991.9,,42,,,14.4
6,45.017972,-74.735222,2019-10-06 01:00:00,-05:00,13,https://aqicn.org/city/canada/ontario/cornwall,,pm25,,,,12.8,,,13,,,
7,45.224278,-78.932944,2019-10-06 01:00:00,-05:00,23,https://aqicn.org/city/canada/ontario/dorset,,o3,,,,23.3,1010.8,,9,,,8.8
8,43.333083,-81.742889,2019-10-06 01:00:00,-05:00,18,https://aqicn.org/city/canada/ontario/grand-bend,,o3,,,,17.6,1013.4,,9,,,10.5
9,43.551611,-80.264167,2019-10-06 01:00:00,-05:00,21,https://aqicn.org/city/canada/ontario/guelph,,pm25,,,,14.5,1016.2,,21,,,
10,43.257778,-79.861667,2019-10-06 01:00:00,-05:00,13,https://aqicn.org/city/canada/ontario/hamilton-downtown,,pm25,3.7,,,4.8,1016.7,,13,,0.6,8.3
11,43.229417,-79.862778,2019-10-06 01:00:00,-05:00,25,https://aqicn.org/city/canada/ontario/hamilton-mountain,,pm25,6.6,,,18.4,1016.7,,25,,0.6,8.3
12,43.257444,-79.90775,2019-10-06 01:00:00,-05:00,38,https://aqicn.org/city/canada/ontario/hamilton-west,,pm25,6.6,,,1.6,1016.7,,38,,0.6,8.3
13,44.219722,-76.521111,2019-10-06 01:00:00,-05:00,26,https://aqicn.org/city/canada/ontario/kingston,,o3,,,,26.4,1021.8,,13,,,9.7
14,43.443833,-80.503806,2019-10-06 01:00:00,-05:00,17,https://aqicn.org/city/canada/ontario/kitchener,,pm25,,,,7.3,,,17,,,10.5
15,42.97446,-81.200858,2019-10-06 01:00:00,-05:00,16,https://aqicn.org/city/canada/ontario/london,,o3,,,,16,980.9,,9,,,
16,43.54697,-79.65869,2019-10-06 01:00:00,-05:00,21,https://aqicn.org/city/canada/ontario/mississauga,,pm25,2.8,,,10.4,1016.7,,21,,0.2,11.1
17,,,,-0500,-,http://aqicn.org/city/canada/ontario/morrisburg/,,,,,88,,1009,,,0,,21.15
18,44.044306,-79.48325,2019-10-06 01:00:00,-05:00,18,https://aqicn.org/city/canada/ontario/newmarket,,o3,2.8,,,17.6,1018.4,,9,,0.2,10.5
19,46.323194,-79.449278,2019-10-06 01:00:00,-05:00,23,https://aqicn.org/city/canada/ontario/north-bay,,o3,,,,23.3,1013.8,,9,,,9.6
20,43.486917,-79.702278,2019-10-06 01:00:00,-05:00,21,https://aqicn.org/city/canada/ontario/oakville,,pm25,6.6,,84.8,14.5,1016.3,,21,,0.2,12.6
21,43.945944,-78.894917,2019-10-06 01:00:00,-05:00,21,https://aqicn.org/city/canada/ontario/oshawa,,o3,,,77.2,20.8,1017.8,,9,,0.2,13.7
22,45.382528,-75.714194,2017-12-29 13:00:00,-05:00,25,http://aqicn.org/city/canada/ontario/ottawa-central/,,o3,,,64,24.8,1025,,9,,,-19.36
23,45.434333,-75.676,2019-10-06 01:00:00,-05:00,25,https://aqicn.org/city/canada/ontario/ottawa-downtown,,pm25,1.8,,84.4,14.5,1022.8,,25,,0.2,5.5
24,45.337861,-80.038167,2019-10-06 01:00:00,-05:00,23,https://aqicn.org/city/canada/ontario/parry-sound,,o3,,,,23.3,1010.8,,5,,,8.8
25,45.996722,-77.441194,2019-10-06 01:00:00,-05:00,18,https://aqicn.org/city/canada/ontario/petawawa,,o3,,,,18.4,1021.6,,9,,,
26,44.301917,-78.346222,2019-10-06 01:00:00,-05:00,16,https://aqicn.org/city/canada/ontario/peterborough,,o3,,,,16,1019.9,,9,,,
27,42.672083,-81.162889,2019-10-06 01:00:00,-05:00,25,https://aqicn.org/city/canada/ontario/port-stanley,,o3,,,,24.8,980.9,,13,,,
28,42.982278,-82.405083,2019-10-06 01:00:00,-05:00,18,https://aqicn.org/city/canada/ontario/sarnia,,o3,,,,18.4,1011.2,,17,,0.3,14.7
29,46.533194,-84.309917,2019-10-06 01:00:00,-05:00,23,https://aqicn.org/city/canada/ontario/sault-ste-marie,,o3,,,,23.3,1008.8,,9,,0.2,
30,43.160056,-79.23475,2019-10-06 01:00:00,-05:00,25,https://aqicn.org/city/canada/ontario/st.-catharines,,pm25,,,,23.3,1018.8,,25,,,12.2
31,46.49194,-81.003105,2019-10-06 01:00:00,-05:00,22,https://aqicn.org/city/canada/ontario/sudbury,,o3,,,,21.6,1014.2,,9,,0.2,9.3
32,48.379389,-89.290167,2019-10-06 01:00:00,-05:00,16,https://aqicn.org/city/canada/ontario/thunder-bay,,o3,,,,16,997.9,,5,,,
33,44.314472,-81.549722,2019-10-06 01:00:00,-05:00,20,https://aqicn.org/city/canada/ontario/tiverton,,o3,,,,20,1011.9,,9,,,11.6
34,43.662972,-79.388111,2019-10-06 01:00:00,-05:00,24,https://aqicn.org/city/canada/ontario/toronto-downtown,,o3,2.8,,64.8,24.1,1019.8,,21,,0.2,13.8
35,43.747917,-79.274056,2019-10-06 01:00:00,-05:00,25,https://aqicn.org/city/canada/ontario/toronto-east,,pm25,2.8,,86.6,22.4,1015.5,,25,,0.2,11.8
36,43.781611,-79.417722,2019-10-06 01:00:00,-05:00,18,https://aqicn.org/city/canada/ontario/toronto-north,,o3,2.8,,,18.4,1014.9,,13,,0.2,9.4
37,43.709444,-79.5435,2019-10-06 01:00:00,-05:00,19,https://aqicn.org/city/canada/ontario/toronto-west,,o3,2.8,,,19.2,1017.6,,9,,0.2,13.3
38,42.315778,-83.043667,2019-10-06 01:00:00,-05:00,21,https://aqicn.org/city/canada/ontario/windsor-downtown,,pm25,3.4,,80.5,14.5,,,21,,0.2,
39,42.292889,-83.073139,2019-10-06 01:00:00,-05:00,46,https://aqicn.org/city/canada/ontario/windsor-west,,pm25,5.6,,80.5,12.8,,,46,,0.5,
40,68.356994,-133.714063,2019-10-05 21:00:00,-05:00,19,https://aqicn.org/city/canada/northwestterritories/inuvik,,o3,3.8,,,19.2,,10,17,,0.6,
41,65.279676,-126.812887,2019-10-05 21:00:00,-05:00,20,https://aqicn.org/city/canada/northwestterritories/norman-wells,,o3,,0.5,,19.6,,3,4,,3.9,1.5
42,62.452084,-114.364031,2019-10-05 21:00:00,-05:00,28,https://aqicn.org/city/canada/northwestterritories/yellowknife,,pm25,3.1,,,7.6,1001.4,22,28,,1.2,3.8
43,-122.29616,38.31097,2018-05-14 11:00:00,-08:00,30,http://aqicn.org/city/california/north-counties/napa/,,pm25,31.2,,,19.2,,,30,,,
44,37.9723,-122.52011,2018-09-14 00:00:00,-08:00,25,http://aqicn.org/city/california/north-counties/san-rafael/,,pm25,28.9,,,16,1016.2,,25,,1.2,57
45,,,,-0800,-,http://aqicn.org/city/california/north-counties/santa-rosa/,,,,,,,,,,,,
46,38.10251,-122.238,2018-09-14 00:00:00,-08:00,17,http://aqicn.org/city/california/north-counties/vallejo/,,pm25,18.9,,87,20.8,1013.7,,17,,0.5,
47,37.74306,-122.16994,2018-09-13 23:00:00,-08:00,15,http://aqicn.org/city/california/coast-and-central-bay/oakland/,,o3,32.3,,87,14.5,1014.5,,13,,0.2,13.3
48,37.8148,-122.28236,2018-09-13 23:00:00,-08:00,25,http://aqicn.org/city/california/coast-and-central-bay/oakland-west/,,pm25,33.4,,87,18.4,1014.4,,25,,0.2,13.7
49,37.76595,-122.39902,2018-09-14 00:00:00,-08:00,9,http://aqicn.org/city/california/coast-and-central-bay/san-francisco/,,pm25,16.7,,87,20.8,1014.6,,9,,0.2,58
50,37.9604,-122.3568,2018-09-13 23:00:00,-08:00,22,http://aqicn.org/city/california/coast-and-central-bay/san-pablo/,,o3,31.2,,93.6,21.6,1013.9,,17,,0.6,57
51,37.936,-122.0262,2018-09-14 00:00:00,-08:00,17,http://aqicn.org/city/california/eastern-district/concord/,,pm25,34.5,,79.2,12.8,1015.9,,17,,0.3,13.6
52,37.6875,-121.7842,2018-09-14 00:00:00,-08:00,25,http://aqicn.org/city/california/eastern-district/livermore/,,pm25,,,,20,1011.5,,25,,,12.7
53,37.48293,-122.20348,2018-09-14 00:00:00,-08:00,9,http://aqicn.org/city/california/south-central-bay/redwood-city/,,pm25,21.2,,,20,1014.2,,9,,,10.2
54,,,,-0800,-,http://aqicn.org/city/california/santa-clara-valley/cupertino/,,,,,,,,,,,,
55,36.99958,-121.57466,2018-09-14 00:00:00,-08:00,5,http://aqicn.org/city/california/santa-clara-valley/gilroy/,,pm25,,,,21.6,1014.6,,5,,,12.7
56,,,,-0800,-,http://aqicn.org/city/california/santa-clara-valley/san-jose-central/,,,,,,,,,,,,
58,41.051896,-73.763648,2019-10-05 23:00:00,-04:00,22,https://aqicn.org/city/usa/newyork/white-plains,,pm25,3,,86,4.8,1015.3,,22,,,44.9
59,40.819732,-73.948239,2019-10-05 23:00:00,-04:00,10,https://aqicn.org/city/usa/newyork/ccny,,pm25,2.6,,60.4,16,1028.1,,10,,,14.1
60,40.815517,-73.885552,2019-10-05 23:00:00,-04:00,24,https://aqicn.org/city/usa/newyork/is-74,,pm25,1.9,,60.4,4,1028.1,,24,,,14.1
61,40.64182,-73.885552,2019-10-05 23:00:00,-04:00,26,https://aqicn.org/city/usa/newyork/ps-314,,pm25,2.7,,,3.2,1028.2,,26,,,14.8
62,40.72698,-73.89312,2019-10-05 23:00:00,-04:00,5,https://aqicn.org/city/usa/newyork/maspeth,,pm25,2.7,,60.4,3.2,1028.1,,5,,,14.1
63,40.743156,-73.585513,2019-10-05 23:00:00,-04:00,35,https://aqicn.org/city/usa/newyork/eisenhower-park,,pm25,3,,,27.2,1026.9,,35,,,50.4
64,40.848913,-73.930604,2019-10-05 23:00:00,-04:00,13,https://aqicn.org/city/usa/newyork/is-143,,pm25,2.2,,82.7,26.4,1028.5,,13,,,10.2
65,40.580254,-74.198295,2019-10-05 23:00:00,-04:00,7,https://aqicn.org/city/usa/newyork/fresh-kills-west,,pm25,0.1,,78.5,24.1,1027.5,,7,,,12.7
67,44.61569,-123.091457,2019-10-05 21:00:00,-07:00,45,https://aqicn.org/city/usa/oregon/albany,,pm25,,,,32.8,1030.9,9,45,,,11.1
68,42.290094,-123.2321,2019-10-05 21:00:00,-07:00,21,https://aqicn.org/city/usa/oregon/applegate-valley,,pm25,,,,28.9,1024.7,,21,,,7.2
69,44.78822,-117.8446,2019-10-05 21:00:00,-07:00,104,https://aqicn.org/city/usa/oregon/baker-city,,pm25,,,,,1028.7,,104,,,
70,45.470191,-122.816411,2019-10-05 21:00:00,-07:00,59,https://aqicn.org/city/usa/oregon/beaverton,,pm25,4.5,,,0.1,1028.6,9,59,,,7.7
71,44.063916,-121.312554,2019-10-05 21:00:00,-07:00,44,https://aqicn.org/city/usa/oregon/bend,,pm25,,,,,1022.1,,44,,,6.1
72,43.58925,-119.04872,2019-10-05 21:00:00,-07:00,74,https://aqicn.org/city/usa/oregon/burns,,pm25,,,,,26.07,,74,,,7.2
73,42.1617,-123.64835,2019-10-05 21:00:00,-07:00,15,https://aqicn.org/city/usa/oregon/cave-junction,,pm25,,,,,1024.9,,15,,,
74,44.5884,-123.2673,2019-10-05 21:00:00,-07:00,31,https://aqicn.org/city/usa/oregon/corvallis,,pm25,,,,32.8,1026.6,9,31,,,13.3
75,45.426351,-117.296066,2019-10-05 21:00:00,-07:00,35,https://aqicn.org/city/usa/oregon/enterprise,,pm25,,,,,1027.2,,35,,,0.5
76,42.434149,-123.348466,2019-10-05 21:00:00,-07:00,37,https://aqicn.org/city/usa/oregon/grants-pass,,pm25,,,,,29.25,,37,,,13
77,45.828968,-119.262991,2019-10-03 13:00:00,-07:00,26,https://aqicn.org/city/usa/oregon/hermiston,,o3,,,41.1,26.4,1011.3,,14,,,17
78,45.528501,-122.972398,2019-10-05 21:00:00,-07:00,59,https://aqicn.org/city/usa/oregon/hillsboro,,pm25,4.5,,,0.1,1028.6,9,59,,,19.4
79,44.418,-118.9513,2019-10-05 21:00:00,-07:00,103,https://aqicn.org/city/usa/oregon/john-day,,pm25,,0.3,62.3,,1028.9,,103,,,
80,42.190296,-121.731369,2019-10-05 21:00:00,-07:00,25,https://aqicn.org/city/usa/oregon/klamath-falls,,pm25,,,56,,26.06,,25,,,7.6
81,45.323625,-118.078063,2019-10-05 20:00:00,-07:00,35,https://aqicn.org/city/usa/oregon/la-grande,,pm25,,,69,,25.06,,35,,,7
82,42.189215,-120.353969,2019-10-05 21:00:00,-07:00,59,https://aqicn.org/city/usa/oregon/lakeview,,pm25,,,,,25.51,,59,,,7.8
83,44.778743,-122.617048,2019-10-05 21:00:00,-07:00,103,https://aqicn.org/city/usa/oregon/lyons,,pm25,,,,32.8,1027.1,9,103,,,7.2
84,42.229891,-122.7877,2019-10-03 13:00:00,-07:00,29,https://aqicn.org/city/usa/oregon/medford,,o3,,,,28.9,1016.6,,15,,,
85,45.652231,-118.823033,2019-10-05 21:00:00,-07:00,21,https://aqicn.org/city/usa/oregon/pendleton,,pm25,,,,26.4,29.2,,21,,,9.4
86,45.496641,-122.602877,2019-10-05 21:00:00,-07:00,70,https://aqicn.org/city/usa/oregon/portland,,pm25,4.7,,,0.1,1028.5,9,70,,1.5,
87,44.299787,-120.844773,2019-10-05 21:00:00,-07:00,49,https://aqicn.org/city/usa/oregon/prineville,,pm25,,,58,,27.33,,49,,,7.9
88,43.2266,-123.36479,2019-10-05 21:00:00,-07:00,27,https://aqicn.org/city/usa/oregon/roseburg,,pm25,,,,,1025.5,,27,,,
89,44.943114,-123.005934,2019-10-05 21:00:00,-07:00,61,https://aqicn.org/city/usa/oregon/salem,,pm25,,,,22.4,1028.2,9,61,,,
90,42.623225,-122.810158,2019-10-05 21:00:00,-07:00,18,https://aqicn.org/city/usa/oregon/shady-cove,,pm25,,,,28.9,1026.3,,18,,,9.4
91,45.014998,-122.790382,2019-10-05 21:00:00,-07:00,63,https://aqicn.org/city/usa/oregon/silverton,,pm25,,,,22.4,1027.5,9,63,,,8.8
92,44.2921,-121.5555,2019-10-05 21:00:00,-07:00,28,https://aqicn.org/city/usa/oregon/sisters,,pm25,,,,,,,28,,,2.7
93,44.395791,-122.7305,2019-10-05 21:00:00,-07:00,86,https://aqicn.org/city/usa/oregon/sweet-home,,pm25,,,,,1026.6,9,86,,,8.8
94,45.602419,-121.203387,2019-10-05 16:00:00,-07:00,18,https://aqicn.org/city/usa/oregon/the-dalles,,pm25,,,58.2,,,,18,,,17.3
95,44.63062,-121.13165,2019-10-05 21:00:00,-07:00,39,https://aqicn.org/city/usa/oregon/madras,,pm25,,,,,1032.4,,39,,,7.7
96,46.97228,-123.83173,2019-10-05 21:00:00,-07:00,19,https://aqicn.org/city/usa/washington/aberdeen/division-st,,pm25,,,,,,,19,,,
97,47.64476,-117.58913,2016-10-05 14:00:00,-07:00,-,http://aqicn.org/city/usa/washington/airway-heights/w-12th-ave/,,,,,34.2,,1021.3,16,8,,,18.1
98,-122.61428,48.52059,2018-09-01 21:00:00,-07:00,38,http://aqicn.org/city/usa/washington/anacortes-202--avenue/,,pm25,,,72.5,24.1,1017.9,,38,,1.5,15.1
99,48.4654,-122.56,2019-10-03 06:00:00,-07:00,18,https://aqicn.org/city/usa/washington/anacortes/bartholomew-rd,,o3,,,,17.6,1013.9,,6,,1.5,11.6
100,47.61311,-122.20161,2018-09-01 21:00:00,-07:00,18,http://aqicn.org/city/usa/washington/bellevue/bellevue-way/,,pm25,3.3,,,16,,,18,,1.5,
101,48.76278,-122.44028,2018-09-01 21:00:00,-07:00,34,http://aqicn.org/city/usa/washington/bellingham/yew-st/,,pm25,,,,9.6,,,34,,1.5,
102,47.592675,-122.62739,2019-10-05 21:00:00,-07:00,31,https://aqicn.org/city/usa/washington/bremerton/spruce-ave,,pm25,3.2,,94.3,16,1030.5,,31,,1.5,8.3
103,48.29786,-124.62491,2019-10-05 21:00:00,-07:00,19,https://aqicn.org/city/usa/washington/cheeka-peak,,o3,1.2,,,19.2,1030.7,,8,,,9.4
104,46.66409,-122.96732,2019-10-05 21:00:00,-07:00,43,https://aqicn.org/city/usa/washington/chehalis/market-blvd,,pm25,,10.3,,6.4,,,43,,,10.3
105,46.425416,-117.060445,2019-10-05 21:00:00,-07:00,38,https://aqicn.org/city/usa/washington/clarkston/13th-st,,pm25,,,70.5,,1026.5,,38,,,4.4
106,47.8082264,-117.34327,2019-10-01 07:00:00,-07:00,7,https://aqicn.org/city/usa/washington/colbert/greenbluff-rd,,o3,,,71.7,7.3,1020.7,16,51,,,-1.5
107,48.54296,-117.90326,2018-09-01 20:00:00,-07:00,33,http://aqicn.org/city/usa/washington/colville/oak-st-s/,,pm25,,,15.5,,1012.5,24,33,,,15.9
108,48.95074,-122.55441,2019-10-05 21:00:00,-07:00,73,https://aqicn.org/city/usa/washington/custer/loomis,,pm25,,,,3.2,1030.6,,73,,1.7,5.5
109,48.2468,-121.6031,2019-10-05 21:00:00,-07:00,12,https://aqicn.org/city/usa/washington/darrington/fir-st,,pm25,,,,,1025.4,,12,,,6.1
110,46.318,-117.985,2019-10-05 21:00:00,-07:00,41,https://aqicn.org/city/usa/washington/dayton/w-main-st,,pm25,,,,,1022.6,,41,,,7.7
111,46.99364,-120.545,2019-10-05 21:00:00,-07:00,50,https://aqicn.org/city/usa/washington/ellensburg/ruby-st,,pm25,,,,,1025.6,8,50,,,8.8
112,46.4085229,-120.5441734,2018-09-01 21:00:00,-07:00,41,http://aqicn.org/city/usa/washington/harrah-n-harrah-rd/,,pm25,,,,,,23,41,,,
113,46.21835,-119.20152,2019-10-05 21:00:00,-07:00,17,https://aqicn.org/city/usa/washington/kennewick/metaline,,pm25,,,,27.2,1028.5,7,17,,,12.2
114,47.38614,-122.23195,2019-10-05 21:00:00,-07:00,34,https://aqicn.org/city/usa/washington/kent/central-and-james,,pm25,2.6,,,9.6,1029.3,,34,,,11.8
115,47.029396,-122.821548,2019-10-05 20:00:00,-07:00,31,https://aqicn.org/city/usa/washington/lacey/college-st,,pm25,,,,6.4,1029.3,,31,,,8.8
116,46.8153,-117.8739,2019-10-05 21:00:00,-07:00,5,https://aqicn.org/city/usa/washington/lacrosse/hill-st,,pm25,,,,,1027.2,,5,,,9.4
117,47.75452,-122.28034,2019-10-05 21:00:00,-07:00,56,https://aqicn.org/city/usa/washington/lake-forest-park/town-center,,pm25,3.3,,,16,1028.5,,56,,,9.4
118,47.59886,-120.6647,2019-10-05 21:00:00,-07:00,33,https://aqicn.org/city/usa/washington/leavenworth/evans-st,,pm25,,,,,,,33,,,6.6
119,47.6603562,-117.0799962,2018-09-01 21:00:00,-07:00,61,http://aqicn.org/city/usa/washington/liberty-lake/e-valleyway/,,pm25,,,,,,41,61,,,
120,46.139443,-122.961944,2019-10-05 21:00:00,-07:00,50,https://aqicn.org/city/usa/washington/longview/30th-ave,,pm25,,,,,1029.3,,50,,,9.3
121,47.8064,-122.3167,2019-10-05 21:00:00,-07:00,65,https://aqicn.org/city/usa/washington/lynnwood/212-ult,,pm25,3.7,,,16,1027.6,,65,,,9.4
122,48.9477,-122.1471,2019-10-05 21:00:00,-07:00,60,https://aqicn.org/city/usa/washington/maple-falls/azure-way,,pm25,,,,3.2,1030.3,,60,,1.7,7.7
123,48.054315,-122.171529,2019-10-05 21:00:00,-07:00,55,https://aqicn.org/city/usa/washington/marysville/7th-ave,,pm25,3.7,,,17.6,1029.7,,55,,,7.2
124,46.5754,-119.0021,2019-10-05 21:00:00,-07:00,11,https://aqicn.org/city/usa/washington/mesa/pepiot-way,,pm25,,,,27.2,992.1,7,11,,,10.5
125,47.1303,-119.2737,2019-10-05 21:00:00,-07:00,21,https://aqicn.org/city/usa/washington/moses-lake/balsam-st,,pm25,,,,,1026.3,,21,,,10.5
126,48.4102,-122.3376,2019-10-05 21:00:00,-07:00,18,https://aqicn.org/city/usa/washington/mt-vernon/s-second-st,,pm25,,,,17.6,1027.5,,18,,1.5,8.3
127,48.366058,-124.610045,2019-10-05 20:00:00,-07:00,19,https://aqicn.org/city/usa/washington/neah-bay-2/makah-tribe,,o3,1.2,,,19.2,1030.7,,44,,,9.4
128,47.49022,-121.77278,2019-10-05 21:00:00,-07:00,20,https://aqicn.org/city/usa/washington/north-bend/north-bend-way,,pm25,3.3,,,22.4,1028.1,,20,,,8.3
129,48.2944,-122.66,2019-10-05 21:00:00,-07:00,20,https://aqicn.org/city/usa/washington/oak-harbor/sw-6th,,pm25,,,,17.6,1031.1,,20,,1.5,
130,46.818292,-123.197083,2018-09-01 21:00:00,-07:00,24,http://aqicn.org/city/usa/washington/oakville/chehalis-tribe/,,o3,,,,24.1,,,20,,,
131,48.39999,-119.51896,2019-10-05 21:00:00,-07:00,38,https://aqicn.org/city/usa/washington/omak/colville-tribe,,pm25,,,,,,,38,,,6.1
132,48.11697,-123.46555,2018-09-01 21:00:00,-07:00,27,http://aqicn.org/city/usa/washington/port-angeles/w-14th-st/,,pm25,,,,,,,27,,,
133,48.12919,-122.77897,2019-10-05 21:00:00,-07:00,28,https://aqicn.org/city/usa/washington/port-townsend/san-juan-ave,,pm25,,,,17.6,1029.5,,28,,1.5,6.1
134,46.7244,-117.18014,2019-10-05 20:00:00,-07:00,4,https://aqicn.org/city/usa/washington/pullman/dexter-se,,pm25,,,,,1026.9,,4,,,6.9
135,47.1401,-122.3004,2019-10-05 21:00:00,-07:00,52,https://aqicn.org/city/usa/washington/puyallup/128th-st,,pm25,,,,,1029.3,,52,,,8.3
136,47.2372495,-122.409946,2018-09-01 21:00:00,-07:00,17,http://aqicn.org/city/usa/washington/puyallup/puyallup-tribe/,,pm25,,,,,,,17,,,
137,46.68562,-123.7285563,2018-04-10 07:00:00,-07:00,-,http://aqicn.org/city/usa/washington/raymond/commercial/,,,,,,,,,16,,,
138,47.128,-118.3819,2019-10-05 21:00:00,-07:00,14,https://aqicn.org/city/usa/washington/ritzville/alder-st,,pm25,,,,,1034.9,,14,,,
139,47.23136,-117.36856,2019-10-05 21:00:00,-07:00,15,https://aqicn.org/city/usa/washington/rosalia/josephine-st,,pm25,,,,18.4,936.1,15,15,,,
140,47.5682,-122.3086,2019-10-05 21:00:00,-07:00,17,https://aqicn.org/city/usa/washington/seattle/beacon-hill,,pm25,2.4,,81.5,16.8,1029.8,,17,,1.5,10.5
141,47.559975,-122.338265,2019-10-05 21:00:00,-07:00,34,https://aqicn.org/city/usa/washington/seattle/duwamish,,pm25,2.4,,,16.8,1029.2,,34,,1.5,11.6
142,47.6171136,-122.3044689,2019-10-05 20:00:00,-07:00,42,https://aqicn.org/city/usa/washington/seattle/olive-st,,pm25,3.3,,78.8,9.6,1029.7,,42,,1.5,11.2
143,47.6331,-122.3628,2018-09-01 21:00:00,-07:00,30,http://aqicn.org/city/usa/washington/seattle/queen-anne-hill/,,pm25,3.2,,,16,,,30,,1.5,
144,47.53091,-122.3208,2019-10-05 21:00:00,-07:00,46,https://aqicn.org/city/usa/washington/seattle/south-park,,pm25,2.4,,,16.8,1029.2,,46,,1.5,11.6
145,47.21355,-123.10081,2019-10-05 21:00:00,-07:00,38,https://aqicn.org/city/usa/washington/shelton/w-franklin,,pm25,,,,6.4,1028.7,,38,,,
146,47.672482,-117.36485,2019-10-05 21:00:00,-07:00,59,https://aqicn.org/city/usa/washington/spokane/augusta-ave,,pm25,,,81.8,,1028.3,25,59,,,5.5
147,47.663,-117.4283,2018-09-01 21:00:00,-07:00,45,http://aqicn.org/city/usa/washington/spokane/college-street/,,pm25,,,,,1012.2,16,45,,,
148,47.663962,-117.25765,2019-10-05 21:00:00,-07:00,61,https://aqicn.org/city/usa/washington/spokane/e-broadway-ave,,pm25,,,,,,25,61,,,
149,47.69983,-117.42631,2019-10-05 21:00:00,-07:00,50,https://aqicn.org/city/usa/washington/spokane/monroe-st,,pm25,,,,,1026.7,16,50,,,6.1
150,47.2656,-122.385,2019-10-05 15:00:00,-07:00,15,https://aqicn.org/city/usa/washington/tacoma/alexander-ave,,pm25,,,70.2,,,,15,,,16.3
151,47.18631,-122.45154,2019-10-05 20:00:00,-07:00,55,https://aqicn.org/city/usa/washington/tacoma/l-street,,pm25,,,91.5,,1029.2,,55,,,9.1
152,46.38024,-120.33266,2019-10-05 20:00:00,-07:00,8,https://aqicn.org/city/usa/washington/toppenish/yakama-tribe,,pm10,,,,,1024.7,8,17,,,12.2
153,48.069,-122.275,2018-09-01 21:00:00,-07:00,28,http://aqicn.org/city/usa/washington/tulalip/tulalip-tribe/,,pm25,2.4,,,13.6,,,28,,,
154,48.36451,-120.12113,2019-10-05 21:00:00,-07:00,35,https://aqicn.org/city/usa/washington/twisp/glover-st,,pm25,,,,,1024.7,,35,,,6.6
155,45.668065,-122.549247,2018-09-01 21:00:00,-07:00,17,http://aqicn.org/city/usa/washington/vancouver/fourth-plain-rd/,,pm25,,,,,,,17,,,
156,46.05881,-118.35147,2019-10-05 21:00:00,-07:00,18,https://aqicn.org/city/usa/washington/walla-walla/12th-st,,pm25,,,,,1027.4,,18,,,11.1
157,47.88528,-117.98865,2019-10-05 21:00:00,-07:00,4,https://aqicn.org/city/usa/washington/wellpinit/spokane-tribe,,pm25,,,84.5,,1026.2,16,4,,,2.5
158,47.43061,-120.34195,2019-10-05 21:00:00,-07:00,10,https://aqicn.org/city/usa/washington/wenatchee/fifth-st,,pm25,,,,,958.3,,10,,,12.7
159,48.47724,-120.19057,2019-10-05 21:00:00,-07:00,20,https://aqicn.org/city/usa/washington/winthrop/chewuch-rd,,pm25,,,,,,,20,,,7.2
160,46.37543,-120.72932,2019-10-05 20:00:00,-07:00,8,https://aqicn.org/city/usa/washington/white-swan/yakama-tribe,,pm10,,,,,1005.6,8,8,,,4.4
161,45.86639,-122.40889,2019-10-05 21:00:00,-07:00,60,https://aqicn.org/city/usa/washington/yacolt/yacolt-rd,,pm25,,,,,,,60,,,6.3
162,46.59495,-120.51228,2019-10-05 21:00:00,-07:00,21,https://aqicn.org/city/usa/washington/yakima/4th-ave,,pm25,,,36.6,,1023.7,8,21,,,15.7
163,46.4452069,-120.438234,2018-09-01 21:00:00,-07:00,30,http://aqicn.org/city/usa/washington/harrah/yakama-tribe/,,pm25,,,,,,23,30,,,
164,45.61071,-122.535634,2018-09-01 21:00:00,-07:00,17,http://aqicn.org/city/usa/washington/vancouver/ne-vancouver/,,pm25,,,,27,,,17,,,
177,29.7706975,-95.0312316,2019-10-05 22:00:00,-06:00,55,https://aqicn.org/city/texas/houston/baytown,,pm25,,,84.8,12.8,1013.5,,55,,0.2,
178,29.686389,-95.294722,2019-10-05 22:00:00,-06:00,59,https://aqicn.org/city/texas/houston/park-place,,pm25,2.3,,,40,1014.2,,59,,0.5,
179,29.5830473,-95.0155437,2019-10-05 22:00:00,-06:00,32,https://aqicn.org/city/texas/houston/seabrook-friendship-park,,o3,,,85.5,32,1013.2,,5,,0.2,27.2
180,30.3503017,-95.4251278,2019-10-05 23:00:00,-06:00,72,https://aqicn.org/city/texas/houston/conroe-relocated,,pm25,2.3,,77.5,13.6,1013.5,,72,,,25.8
181,29.7679707,-95.2205867,2019-10-05 22:00:00,-06:00,70,https://aqicn.org/city/texas/houston/houston-east,,pm25,2.3,,,29.6,1013.2,,70,,0.5,27.2
182,32.1754284,-96.8701803,2019-10-05 22:00:00,-06:00,51,https://aqicn.org/city/texas/dallas/fort-worth/italy,,pm25,,,,34.4,1013.8,,51,,,
183,32.5649518,-96.3176773,2019-10-05 23:00:00,-06:00,51,https://aqicn.org/city/texas/dallas/fort-worth/kaufman,,pm25,,,,28.9,1010.4,,51,,,25.8
184,32.6563574,-97.0885849,2019-10-05 22:00:00,-06:00,51,https://aqicn.org/city/texas/dallas/fort-worth/arlington-municipal-airport,,pm25,,,,33.6,1014.2,,51,,,
185,32.7591432,-97.3423337,2019-10-05 23:00:00,-06:00,59,https://aqicn.org/city/texas/dallas/fort-worth/haws-athletic-center,,pm25,,,61.5,28.1,1016.3,,59,,,26.9
186,29.4072945,-98.431251,2019-10-05 21:00:00,-06:00,30,https://aqicn.org/city/texas/san-antonio/cps-pecan-valley,,pm25,,,,28.9,1014.1,,30,,,25.8
187,29.2753812,-98.3116919,2019-10-05 22:00:00,-06:00,29,https://aqicn.org/city/texas/san-antonio/calaveras-lake,,o3,,,70.8,28.9,1012.5,,25,,,24.7
188,29.3529047,-98.3328207,2019-10-05 21:00:00,-06:00,30,https://aqicn.org/city/texas/san-antonio/heritage-middle-school,,pm25,,,59.5,28.9,1012.2,,30,,,25.5
189,29.4239327,-98.5805051,2019-10-05 23:00:00,-06:00,59,https://aqicn.org/city/texas/san-antonio/old-hwy-90,,pm25,,,,8,1013.8,,59,,,
190,29.3328029,-98.5513964,2019-10-05 23:00:00,-06:00,44,https://aqicn.org/city/texas/san-antonio/palo-alto,,pm25,,,,8,1013.8,,44,,,
191,29.51509,-98.620166,2019-10-05 22:00:00,-06:00,53,https://aqicn.org/city/texas/san-antonio/san-antonio-northwest,,pm25,,,62.5,33.6,1011.7,,53,,,26.6
192,29.5877306,-98.3124785,2017-12-29 12:00:00,-06:00,35,http://aqicn.org/city/texas/san-antonio/selma/,,pm25,,,,7.3,,,35,,1.2,
193,31.6675,-106.288,2019-10-05 22:00:00,-06:00,60,https://aqicn.org/city/texas/el-paso/socorro-hueco,,pm25,2.3,,,3.2,1009.1,51,60,,1.2,21.9
194,27.4269883,-97.2987037,2019-10-05 22:00:00,-06:00,25,https://aqicn.org/city/texas/corpus-christi/national-seashore,,pm25,,,,19.2,1013.3,,25,,0.5,27.7
195,30.06717,-94.09093,2018-05-03 15:00:00,-06:00,46,http://aqicn.org/city/texas/beaumont/beaumont-mary/,,pm25,4.5,,69.5,5.6,1017.4,,46,,0.3,26.9444
196,31.8702534,-102.3347563,2019-10-05 08:00:00,-06:00,-,https://aqicn.org/city/texas/midland/odessa-gonzales,,,,,,,1016.2,,5,,,
197,29.2544736,-94.8612886,2019-10-05 22:00:00,-06:00,38,https://aqicn.org/city/texas/houston/galveston-99th-street,,o3,2.3,,,38.4,1014.2,,5,,0.2,27.2
198,31.6530743,-97.0706982,2019-10-05 23:00:00,-06:00,46,https://aqicn.org/city/texas/waco/waco-mazanec,,pm25,,,,34.4,,,46,,,26.1
199,27.599444,-99.533333,2019-10-05 22:00:00,-06:00,34,https://aqicn.org/city/texas/laredo/world-trade-bridge,,pm25,2.3,,75.4,18.4,1015.1,,34,,,27.3
200,35.2015839,-101.9092481,2018-05-03 16:00:00,-06:00,48,http://aqicn.org/city/texas/amarillo/amarillo-a-m/,,pm25,,,14.1,,1014.6,,48,,,26.1
201,29.7337263,-95.2575931,2019-10-05 23:00:00,-06:00,52,https://aqicn.org/city/texas/houston/clinton,,pm25,2.3,,,39.2,1013.2,,52,,0.5,27.2
202,29.670025,-95.1285077,2019-10-05 23:00:00,-06:00,58,https://aqicn.org/city/texas/houston/houston-deer-park--2,,pm25,,,84.7,38.4,1013.5,,58,,0.2,
203,29.901037,-95.3261248,2019-10-05 22:00:00,-06:00,23,https://aqicn.org/city/texas/houston/houston-aldine,,o3,,,,23.3,1013.5,,,,0.5,23.8
204,32.8200608,-96.8601165,2019-10-05 22:00:00,-06:00,51,https://aqicn.org/city/texas/dallas/fort-worth/dallas-hinton,,pm25,,,66.8,32.8,1013.4,,51,,,27.6
205,33.2190564,-97.1962872,2019-10-05 22:00:00,-06:00,31,https://aqicn.org/city/texas/dallas/fort-worth/denton-airport-south,,o3,,,63.4,31.2,1012.8,,,,,26.6
206,32.4820815,-97.0269224,2019-10-05 23:00:00,-06:00,53,https://aqicn.org/city/texas/dallas/fort-worth/midlothian-ofw,,pm25,,,,30.4,1009.8,,53,,,
207,31.7467425,-106.4027843,2019-10-05 22:00:00,-06:00,48,https://aqicn.org/city/texas/el-paso/ascarate-park-se,,pm25,2.3,,,8.8,1009.1,12,48,,1.2,21.9
208,31.7656976,-106.4552204,2019-10-05 21:00:00,-06:00,19,https://aqicn.org/city/texas/el-paso/el-paso-chamizal,,o3,2.3,,,19.2,1009.7,19,5,,1.2,21.6
209,31.7682914,-106.5012595,2019-10-05 22:00:00,-06:00,35,https://aqicn.org/city/texas/el-paso/el-paso-utep,,pm25,2.3,,,17.6,1009.7,19,35,,1.2,21.6
210,26.2262097,-98.291069,2019-10-05 21:00:00,-06:00,21,https://aqicn.org/city/texas/harlingen/mission,,pm25,,,,20.8,1013.1,,21,,,26.1
211,27.8118142,-97.4657005,2019-10-05 23:00:00,-06:00,38,https://aqicn.org/city/texas/corpus-christi/dona-park,,pm25,,,,20.8,1012.1,,38,,0.5,27.7
212,29.8639525,-94.3177999,2019-10-05 22:00:00,-06:00,57,https://aqicn.org/city/texas/beaumont/hamshire,,pm25,4.5,,,20,1014.2,,57,,0.3,
213,30.1946263,-93.8672095,2019-10-05 22:00:00,-06:00,76,https://aqicn.org/city/texas/beaumont/setrpc-42-mauriceville,,pm25,4.5,,,8,1014.8,,76,,0.3,
214,25.8925176,-97.4938295,2019-10-05 22:00:00,-06:00,30,https://aqicn.org/city/texas/harlingen/brownsville,,pm25,,,87.5,8,1013.1,,30,,,24.7
215,31.8365747,-102.3420368,,-06:00,-,https://aqicn.org/city/texas/midland/odessa-hays-elementary-school,,,,,,,1016.2,,,,,
216,30.0584604,-95.1897514,1970-01-01 00:00:00,-0600,-,http://aqicn.org/city/texas/houston/kingwood/,,,,,,,,,,,,
217,30.4831681,-97.8723005,2019-10-05 23:00:00,-06:00,46,https://aqicn.org/city/texas/austin/austin-audubon-society,,pm25,,,,24.8,1010.9,,46,,0.6,24.6
218,30.3544356,-97.7602554,2019-10-05 23:00:00,-06:00,46,https://aqicn.org/city/texas/austin/austin-northwest,,pm25,,,,20,1012.7,,46,,0.6,25.5
219,29.9229186,-93.9090282,2019-10-05 22:00:00,-06:00,68,https://aqicn.org/city/texas/beaumont/port-arthur-memorial-school,,pm25,4.5,,,12.8,1014.8,,68,,0.2,
220,26.0696153,-97.1621996,2019-10-02 10:00:00,-06:00,-,https://aqicn.org/city/texas/harlingen/isla-blanca-park,,,,,,8,1012.3,,50,,,
221,32.6689873,-94.1674569,2019-10-05 23:00:00,-06:00,53,https://aqicn.org/city/texas/tyler/karnack,,pm25,,,,2.4,1014.8,,53,,,
222,33.8630221,-98.5717882,,-0600,-,http://aqicn.org/city/texas/abilene/wichita-falls/,,,,,50,,993.16,,,,,22.49
223,28.704607,-100.4511555,2019-10-05 22:00:00,-06:00,9,https://aqicn.org/city/texas/laredo/eagle-pass,,pm25,,,,,1013.5,,9,,,
224,30.2632079,-97.7128831,2019-10-05 22:00:00,-06:00,53,https://aqicn.org/city/texas/austin/austin-webberville-rd,,pm25,,,58.5,14.5,,,53,,0.6,26.6
225,33.590764,-101.8504185,,-0600,-,http://aqicn.org/city/texas/lubbock/lubbock-pm25/,,,,,45,,,,,,,16.74
226,32.0319398,-96.3991377,2019-10-05 23:00:00,-06:00,53,https://aqicn.org/city/texas/dallas/fort-worth/corsicana-airport,,pm25,,,73.5,32.8,999.4,,53,,,26.3
227,30.2583319,-97.7203007,2018-05-03 16:00:00,-06:00,54,http://aqicn.org/city/texas/austin/zavala-elementary/,,pm25,,,74.6,14.5,1006.5,,54,,0.6,30.0556
228,29.9624745,-96.7458748,,-06:00,-,https://aqicn.org/city/texas/austin/fayette-county,,,,,,,1022.6,,,,,14.6
229,38.20185,-120.68028,2019-10-05 20:00:00,-07:00,29,https://aqicn.org/city/california/calaveras/san-andreas-gold-strike-road,,o3,,,61.6,28.9,1016.5,11,13,,,15.7
230,37.74871,-119.58709,2019-10-05 20:00:00,-07:00,159,https://aqicn.org/city/california/mariposa/yosemite-village-visitor-center,,pm25,,,59.1,25.6,1015.6,70,159,,,17.2
231,39.23352,-121.05567,2019-10-05 20:00:00,-07:00,36,https://aqicn.org/city/california/nevada/grass-valley-litton-building,,o3,,,62.9,36.1,1019.7,,30,,5.8,13.3
232,39.32782,-120.18459,2019-10-05 21:00:00,-07:00,50,https://aqicn.org/city/california/nevada/truckee-fire-station,,pm25,,,47.7,0.1,1013.6,15,50,,,7.2
233,39.09979,-120.95391,2019-10-05 20:00:00,-07:00,17,https://aqicn.org/city/california/placer/colfax-city-hall,,pm25,,,,15.2,1016.2,,17,,5.8,13.3
234,40.30961,-121.22779,2019-10-05 21:00:00,-07:00,17,https://aqicn.org/city/california/plumas/chester,,pm25,,,,38.4,1025.7,,17,,,5.6
235,39.80587,-120.46866,,-0700,-,http://aqicn.org/city/california/plumas/portola-nevada-street/,,,,,36,,1021,,,,,17.66
236,39.93957,-120.94438,2019-10-05 21:00:00,-07:00,53,https://aqicn.org/city/california/plumas/quincy-n-church-street,,pm25,,,,,1025.7,,53,,,5.6
237,35.05045,-118.14778,2019-10-05 20:00:00,-07:00,45,https://aqicn.org/city/california/kern/mojave,,o3,0.1,,,44.8,1017.9,41,17,,,
238,36.48187,-121.73333,2019-10-05 20:00:00,-07:00,23,https://aqicn.org/city/california/monterey/carmel-valley-ford-road,,o3,3.4,,45.5,23.3,1017.4,,21,,1.5,12.5
239,36.20902,-121.12596,2019-10-05 20:00:00,-07:00,25,https://aqicn.org/city/california/monterey/king-city-pearl,,pm25,,,48.3,23.3,,23,25,,,
240,36.98401,-121.99097,2019-10-05 19:00:00,-07:00,30,https://aqicn.org/city/california/santa-cruz/santa-cruz-soquel-avenue,,pm10,4,,59.5,23.3,1016.5,30,17,,1.5,16.1
241,34.17599,-118.31701,,-0700,-,http://aqicn.org/city/losangeles/burbank/,,,,,78,,1011,,,,,21.9
242,34.14437,-117.85038,2019-10-05 21:00:00,-07:00,63,https://aqicn.org/city/losangeles/glendora-laurel,,pm25,5.5,,,36.1,1016.1,35,63,,1.5,78
243,34.06653,-118.22676,2019-10-05 21:00:00,-07:00,50,https://aqicn.org/city/losangeles/los-angeles-north-main-street,,pm25,3.8,,,24.8,1015.9,44,50,,1.5,77
244,33.82376,-118.18916,2016-09-02 10:00:00,-0700,-,http://aqicn.org/city/losangeles/north-long-beach-long-beach/,,,,,64,,1011,,46,,,26.83
245,34.1992,-118.53275,2019-10-05 21:00:00,-07:00,69,https://aqicn.org/city/losangeles/reseda,,pm25,5.5,,,42.4,1015.6,,69,,1.5,80
246,34.38337,-118.52839,2019-10-05 21:00:00,-07:00,34,https://aqicn.org/city/losangeles/santa-clarita-placerita,,o3,6.5,,,33.6,1015.9,,33,,1.5,81
247,33.7924,-118.17525,2019-10-05 21:00:00,-07:00,52,https://aqicn.org/city/california/los-angeles/south-long-beach,,pm25,2.4,,81.5,29.6,1014.5,25,52,,4.3,15.2
248,33.92077,-116.85841,2019-10-05 21:00:00,-07:00,56,https://aqicn.org/city/california/riverside/banning-airport,,pm25,1.2,,36.5,31.2,1015.4,13,56,,,82
249,33.67653,-117.33104,2019-10-05 21:00:00,-07:00,54,https://aqicn.org/city/california/riverside/lake-elsinore-w-flint-street,,pm25,4.6,,58.8,36.8,1015.4,32,54,,1.5,80
250,33.99636,-117.4924,2019-10-05 21:00:00,-07:00,75,https://aqicn.org/city/california/riverside/mira-loma-van-buren,,pm10,5.9,,,17.6,1014.9,75,64,,1.5,18.6
251,33.94586,-117.40056,2016-09-07 06:00:00,-0700,-,http://aqicn.org/city/california/riverside/riverside-magnolia/,,,8.9,,48,1,1013,54,53,,,28.22
252,33.99952,-117.41595,2019-10-05 21:00:00,-07:00,50,https://aqicn.org/city/california/riverside/rubidoux-mission-blvd,,pm25,7.3,,,28.9,1014.9,50,50,,1.5,79
253,33.58333,-117.08333,2019-10-05 21:00:00,-07:00,60,https://aqicn.org/city/california/riverside/temecula-lake-skinner,,pm25,1.2,,,34.4,1014.7,41,60,,,16.1
254,34.24313,-117.2723,2019-10-05 21:00:00,-07:00,63,https://aqicn.org/city/california/san-bernardino/lake-gregory-crestline,,pm25,1.2,,,36.8,1005.7,47,63,,1.5,70
255,34.10367,-117.62906,2019-10-05 20:00:00,-07:00,63,https://aqicn.org/city/california/san-bernardino/upland,,pm25,5.7,,,0.1,1016.6,44,63,,1.5,77
256,35.04676,-120.58777,2019-10-05 21:00:00,-07:00,55,https://aqicn.org/city/california/san-luis-obispo/cdf-arroyo-grande,,pm10,1.3,,49.5,30.4,1013.5,55,46,,1.5,14.1
257,35.49153,-120.66799,,-0700,-,http://aqicn.org/city/california/san-luis-obispo/atascadero-lewis-avenue/,,,,,100,,1014,,,,,14.66
258,35.02079,-120.56389,2019-10-05 21:00:00,-07:00,37,https://aqicn.org/city/california/san-luis-obispo/nipomo-guadalupe-road,,pm10,1.3,,49.5,30.4,1013.5,37,30,,1.5,14.1
259,35.25651,-120.6693,2019-10-05 20:00:00,-07:00,29,https://aqicn.org/city/california/san-luis-obispo/san-luis-obispo-higuera-street,,o3,1.3,,46.5,28.9,1014.3,15,25,,1.5,11.9
260,34.44551,-119.82845,2019-10-05 21:00:00,-07:00,46,https://aqicn.org/city/california/santa-barbara/goleta-fairview,,pm25,2.3,,,18.4,1014.4,22,46,,1.5,14.1
261,34.63782,-120.4575,2019-10-05 21:00:00,-07:00,30,https://aqicn.org/city/california/santa-barbara/lompoc-south-h-street,,pm25,3.4,,,16,1014.6,23,30,,2.9,15.5
262,34.42775,-119.69091,2019-10-05 20:00:00,-07:00,53,https://aqicn.org/city/california/santa-barbara/santa-barbara-national-guard-armory,,pm25,2.3,,,23.3,1014.4,35,53,,1.5,14.1
263,34.94287,-120.43561,2019-10-05 20:00:00,-07:00,29,https://aqicn.org/city/california/santa-barbara/santa-maria-south-broadway,,pm10,2.3,,,26.4,,29,25,,1.5,10.8
264,34.25238,-119.14318,2019-10-05 16:00:00,-07:00,53,https://aqicn.org/city/california/ventura/el-rio-rio-mesa-school--2,,o3,4.5,,,53.3,1014.5,51,38,,,
265,34.44804,-119.23131,2019-10-05 20:00:00,-07:00,25,https://aqicn.org/city/california/ventura/ojai-east-ojai-av,,pm25,2.3,,49.5,21.6,973.6,51,25,,,16.6
266,34.40426,-118.80991,2019-10-05 21:00:00,-07:00,53,https://aqicn.org/city/california/ventura/piru-pacific,,pm25,4.5,,72.5,31.2,1035.3,25,53,,,
267,34.2764,-118.68375,2019-10-05 21:00:00,-07:00,61,https://aqicn.org/city/california/ventura/simi-valley-cochran-street,,pm25,4.5,,58.6,40.8,,25,61,,,14.4
268,32.84231,-116.76784,2019-10-05 21:00:00,-07:00,50,https://aqicn.org/city/california/san-diego/alpine-victoria-drive,,o3,3.5,,,49.6,1021.5,,40,,,
269,33.21701,-117.39616,2019-10-05 21:00:00,-07:00,25,https://aqicn.org/city/california/san-diego/camp-pendleton,,o3,,,88.5,24.8,1016.3,,22,,,16.1
270,32.7912,-116.9421,2019-10-05 21:00:00,-07:00,39,https://aqicn.org/city/california/san-diego/el-cajon-redwood-avenue,,pm25,3.6,,,28.1,1011.4,,39,,,17.5
271,33.12772,-117.07536,,-07:00,-,http://aqicn.org/city/california/san-diego/escondido-e-valley-parkway/,,,,,88,,1012,,,,,21.96
272,32.70148,-117.14962,2016-10-20 09:00:00,-07:00,-,http://aqicn.org/city/california/san-diego/san-diego-beardsley/,,,4.5,,15,12.8,,,67,,,25.21
273,38.12275,-122.90836,,-0700,-,http://aqicn.org/city/california/marin/point-reyes/,,,,,69,,1014,,,,,19.2
274,36.81931,-119.71639,2019-10-05 19:00:00,-07:00,48,https://aqicn.org/city/california/fresno/clovis-n-villa-avenue,,pm10,5.8,,,18.4,1016.2,48,60,,1.5,16.2
275,36.70556,-119.74139,2019-10-05 20:00:00,-07:00,58,https://aqicn.org/city/california/fresno/fresno-drummond-street,,pm10,6.5,,,17.6,1017.2,58,54,,1.5,
276,36.78538,-119.77321,2019-10-05 20:00:00,-07:00,58,https://aqicn.org/city/california/fresno/fresno-garland,,pm10,6.5,,,21.6,1017.2,58,54,,1.5,
277,36.19865,-120.10117,2019-10-05 19:00:00,-07:00,28,https://aqicn.org/city/california/fresno/huron-4th-street,,o3,,,,28.1,1017.2,67,25,,1.5,17.1
278,36.63434,-120.38234,2019-10-05 20:00:00,-07:00,15,https://aqicn.org/city/california/fresno/tranquility,,o3,,,,15.2,1013.3,92,13,,1.5,15.5
279,35.35662,-119.06261,2019-10-05 20:00:00,-07:00,42,https://aqicn.org/city/california/kern/bakersfield-california-avenue,,pm25,1.9,,50.6,24.1,1016.9,30,42,,,18.3
280,34.84155,-118.86058,2019-10-05 20:00:00,-07:00,23,https://aqicn.org/city/california/kern/lebec,,pm10,,,12.5,33.6,1017.9,23,13,,,17.2
281,36.31572,-119.64323,2019-10-05 19:00:00,-07:00,51,https://aqicn.org/city/california/kings/hanford-s-irwin-street,,pm25,6.5,,59.6,13.6,1015.5,67,51,,1.5,16.6
282,36.86719,-120.01011,2019-10-05 20:00:00,-07:00,27,https://aqicn.org/city/california/madera/madera-pump-yard,,o3,,,,27.2,1017.2,92,36,,1.5,
283,37.28177,-120.43368,2019-10-05 20:00:00,-07:00,50,https://aqicn.org/city/california/merced/merced-coffee-road,,pm25,3.4,,,12.8,,43,50,,37.2,17.5
284,37.79338,-121.24779,2019-10-05 18:00:00,-07:00,28,https://aqicn.org/city/california/san-joaquin/manteca-ams,,pm10,7.9,,53.1,5.6,1015.6,28,17,,1.5,
285,37.95075,-121.26897,2019-10-05 20:00:00,-07:00,61,https://aqicn.org/city/california/san-joaquin/stockton-hazelton,,pm25,9.2,,,0.8,1016.3,28,61,,1.5,17.7
286,37.68268,-121.44238,2019-10-05 20:00:00,-07:00,33,https://aqicn.org/city/california/san-joaquin/tracy-airport,,pm10,7.9,,,26.4,,33,25,,1.5,17.5
287,37.64217,-120.99421,2019-10-05 20:00:00,-07:00,43,https://aqicn.org/city/california/stanislaus/modesto-14th-street,,pm10,3.4,,,16,1011.9,43,21,,37.2,14.7
288,36.03179,-119.05505,2019-10-05 20:00:00,-07:00,68,https://aqicn.org/city/california/tulare/porterville,,pm25,,,58.5,25.6,1016.2,61,68,,1.5,
289,36.33252,-119.29095,2019-10-05 20:00:00,-07:00,65,https://aqicn.org/city/california/tulare/visalia,,pm25,,,59.6,20,1015.5,61,65,,1.5,16.6
290,33.35264,-115.73419,2019-10-05 14:00:00,-07:00,16,https://aqicn.org/city/california/imperial/bombay-beach,,o3,,,,16,1017.8,49,8,,,34.5
291,32.67618,-115.48307,2019-10-05 20:00:00,-07:00,68,https://aqicn.org/city/california/imperial/calexico-ethel-street,,pm25,7.7,,23.5,8,1011.4,68,68,,1.5,23.6
292,33.16923,-115.85593,2019-08-03 11:00:00,-07:00,49,https://aqicn.org/city/california/imperial/naval-test-base,,pm25,,,17.2,14.5,1012.8,49,49,,,39.2
293,33.17638,-115.6231,2019-10-05 20:00:00,-07:00,48,https://aqicn.org/city/california/imperial/sonny-bono,,pm10,,,26.9,10.4,1017.7,48,17,,,25.6
294,33.50896,-115.91954,2019-10-05 19:00:00,-07:00,59,https://aqicn.org/city/california/riverside/salton-sea-park,,pm25,,,26.9,44,1017.7,51,59,,,25.6
295,33.51831,-116.07538,2019-10-05 19:00:00,-07:00,60,https://aqicn.org/city/california/riverside/torres-martinez,,pm25,,,,23,1012.3,51,60,,,18.3
296,39.76168,-121.84047,2019-10-05 20:00:00,-07:00,25,https://aqicn.org/city/california/butte/chico-east-avenue,,pm25,2.5,,,18.4,1015.5,17,25,,5.8,15.8
297,39.32756,-121.66881,2019-10-05 20:00:00,-07:00,39,https://aqicn.org/city/california/butte/gridley,,pm10,,,43.2,44,1011.7,39,25,,5.8,14.7
298,39.18919,-121.99887,2019-10-05 20:00:00,-07:00,63,https://aqicn.org/city/california/colusa/colusa-sunrise-blvd,,pm10,,,47.2,15.2,1011.7,63,42,,5.8,13.4
299,39.53387,-122.19083,2019-10-05 20:00:00,-07:00,28,https://aqicn.org/city/california/glenn/willows-colusa,,o3,2.5,,,28.1,1017.1,10,9,,5.8,15.5
300,38.74643,-121.26498,2019-10-05 20:00:00,-07:00,38,https://aqicn.org/city/california/placer/roseville-n-sunrise-ave,,pm25,11.2,,,11.2,1015.4,30,38,,5.8,18.8
301,38.30256,-121.42083,2019-10-05 21:00:00,-07:00,21,https://aqicn.org/city/california/sacramento/elk-grove-bruceville-road,,pm25,3.5,,51.4,9.6,1016.5,15,21,,5.8,16.7
302,38.68329,-121.16444,2019-07-22 09:00:00,-07:00,46,https://aqicn.org/city/california/sacramento/folsom-natoma-street,,pm25,11.2,,,26.4,1010.3,13,46,,5.8,30.9
303,38.61374,-121.36801,2019-10-05 20:00:00,-07:00,,https://aqicn.org/city/california/sacramento/sacramento-del-paso-manor,,o3,1.6,,40.5,0.1,1016.9,15,17,,5.8,17.5
304,38.56844,-121.49311,2019-10-05 20:00:00,-07:00,46,https://aqicn.org/city/california/sacramento/sacramento-1309-t-street,,pm25,2.1,,58.5,0.1,1022.3,31,46,,5.8,16.9
305,40.45318,-122.29883,2019-10-05 21:00:00,-07:00,26,https://aqicn.org/city/california/shasta/anderson-north-street,,o3,,,32.8,25.6,1017.8,,13,,,19.7
306,38.35655,-121.94986,2019-10-05 20:00:00,-07:00,21,https://aqicn.org/city/california/solano/vacaville-ulatis-drive,,pm25,3.8,,,13.6,1017.9,15,21,,5.8,15.5
307,39.13876,-121.61872,2019-10-05 20:00:00,-07:00,39,https://aqicn.org/city/california/sutter/yuba-city,,pm10,,,71.6,4.8,,39,25,,5.8,14.4
308,38.53455,-121.7734,2019-10-05 20:00:00,-07:00,18,https://aqicn.org/city/california/yolo/davis-ucd-campus,,o3,4.4,,,17.6,1016.5,15,17,,5.8,
309,38.66121,-121.73269,2019-10-05 20:00:00,-07:00,25,https://aqicn.org/city/california/yolo/woodland-gibson-road,,pm25,4.4,,,8.8,1016.1,15,25,,5.8,15.8
310,37.48822,-120.83592,2019-10-05 20:00:00,-07:00,46,https://aqicn.org/city/california/stanislaus/turlock-s-minaret-street,,pm25,3.4,,,17.6,1011.9,43,46,,37.2,14.7
317,33.83061,-117.9385,2019-10-05 20:00:00,-07:00,46,https://aqicn.org/city/california/orange/anaheim-loara-school,,pm25,7.4,,84.7,0.1,1012.7,31,46,,,16.2
324,39.77919,-121.59135,2019-10-05 20:00:00,-07:00,17,https://aqicn.org/city/california/butte/paradise-theater,,pm10,2.5,,34.5,24.1,1018.9,17,5,,5.8,18.4
325,34.21014,-118.8705,2019-10-05 21:00:00,-07:00,50,https://aqicn.org/city/california/ventura/thousand-oaks-moorpark-road,,pm25,4.5,,,28.9,1013.6,23,50,,,15.2
326,39.15047,-123.20655,2019-10-05 21:00:00,-07:00,46,https://aqicn.org/city/california/mendocino/ukiah-library,,pm25,,,59.6,11.2,1016.8,,46,,,
327,33.27275,-115.90062,2019-08-09 12:00:00,-07:00,30,https://aqicn.org/city/california/imperial/salton-city,,pm25,,,18.6,10.4,1012.4,49,30,,,39.5
328,36.84343,-121.3621,2019-10-05 20:00:00,-07:00,29,https://aqicn.org/city/california/san-benito/hollister-fairview-road,,pm10,3.4,,,21.6,1013.2,29,17,,1.5,16.3
329,-23.4892079,-46.6741555,2019-10-06 01:00:00,-03:00,62,https://aqicn.org/city/brazil/sao-paulo/americana,,pm10,3.7,,,32.1,1012.5,62,57,,0.6,23.3
330,-21.1860297,-50.4394393,2019-10-06 02:00:00,-03:00,61,https://aqicn.org/city/brazil/sao-paulo/aracatuba,,pm10,,,,22.4,,61,,,,
331,-21.7829663,-48.1864714,2019-10-06 01:00:00,-03:00,39,https://aqicn.org/city/brazil/sao-paulo/araraquara,,pm10,,,,35,,39,,,,
332,-22.329295,-49.0905538,2019-10-06 02:00:00,-03:00,54,https://aqicn.org/city/brazil/sao-paulo/bauru,,pm10,,,,26.9,,54,,,,
333,-22.9028433,-47.0571098,2019-09-24 10:00:00,-03:00,38,https://aqicn.org/city/brazil/sao-paulo/campinas-centro,,pm10,5.5,,42.8,60.4,1028.3,38,93,,4.1,24.4
334,-23.6667239,-46.7816448,2019-10-06 01:00:00,-03:00,53,https://aqicn.org/city/brazil/sao-paulo/capao-redondo,,pm25,6.4,,,27.7,1012.5,26,53,,0.6,23.3
335,-23.5239623,-46.8411243,2019-10-06 01:00:00,-03:00,46,https://aqicn.org/city/brazil/sao-paulo/carapicuiba,,pm25,2.8,,,34.2,1012.5,14,46,,0.6,23.3
336,-21.1420049,-48.9829903,2019-10-06 02:00:00,-03:00,20,https://aqicn.org/city/brazil/sao-paulo/catanduva,,o3,15.4,15.7,46.1,19.5,947.4,6,68,,,28.4
337,-23.5502041,-46.6784605,2019-10-06 01:00:00,-03:00,50,https://aqicn.org/city/brazil/sao-paulo/cerqueira-cesar,,pm25,1.9,,,21.6,1012.2,21,50,,0.6,22.7
338,-23.6186305,-46.6482747,2019-10-06 01:00:00,-03:00,61,https://aqicn.org/city/brazil/sao-paulo/congonhas,,pm25,3.7,,,32.5,1012.5,26,61,,0.6,23.3
339,-23.880185,-46.4179827,2019-10-06 01:00:00,-03:00,24,https://aqicn.org/city/brazil/sao-paulo/cubatao-centro,,o3,,,,24,1011.6,18,,,0.6,25.5
340,-23.8436848,-46.377867,2019-10-06 01:00:00,-03:00,48,https://aqicn.org/city/brazil/sao-paulo/cubatao-vale-do-mogi,,pm10,,,,20.4,1011.6,48,,,1.1,25.5
341,-23.8508082,-46.389992,2019-10-06 02:00:00,-03:00,75,https://aqicn.org/city/brazil/sao-paulo/cubatao-vila-parisi,,pm10,,,,23.6,1011.6,75,,,0.6,25.5
342,-23.6818396,-46.620967,2019-10-06 00:00:00,-03:00,50,https://aqicn.org/city/brazil/sao-paulo/diadema,,pm25,5.5,,,32.1,1012.5,21,50,,0.6,23.3
343,-23.4562135,-46.5182887,2019-10-06 02:00:00,-03:00,91,https://aqicn.org/city/brazil/sao-paulo/guarulhos-paco-municipal,,pm25,3.7,,,22.8,1012.2,40,91,,0.6,22.7
344,-23.5804482,-46.6638124,2019-10-06 01:00:00,-03:00,33,https://aqicn.org/city/brazil/sao-paulo/ibirapuera,,o3,1.9,,,32.5,1012.2,13,55,,0.6,22.7
345,-23.6824703,-46.676091,2019-10-06 01:00:00,-03:00,61,https://aqicn.org/city/brazil/sao-paulo/interlagos,,pm25,5.5,,,32.1,1012.2,20,61,,0.6,22.7
346,,,,-03:00,-,http://aqicn.org/city/brazil/sao-paulo/ipen-usp/,,,,,,,,,,,,
347,-23.5019101,-46.4204122,2019-10-06 00:00:00,-03:00,107,https://aqicn.org/city/brazil/sao-paulo/itaim-paulista,,pm25,4.6,,,22.4,1012.4,29,107,,0.6,23.3
348,-23.5817434,-46.462333,2019-10-06 00:00:00,-03:00,55,https://aqicn.org/city/brazil/sao-paulo/itaquera,,pm25,2.8,,,25.2,1012.5,25,55,,1.6,23.3
349,-23.2978962,-45.9676625,2019-10-06 00:00:00,-03:00,61,https://aqicn.org/city/brazil/sao-paulo/jacarei,,pm25,1,,,22.4,,8,61,,0.6,
350,-22.2995131,-48.5650057,2019-10-06 01:00:00,-03:00,58,https://aqicn.org/city/brazil/sao-paulo/jau,,pm10,,,,22.8,,58,,,,
351,-23.6527809,-46.7123885,2019-10-06 01:00:00,-03:00,61,https://aqicn.org/city/brazil/sao-paulo/jundiai,,pm25,5.5,,,28.9,1012.4,30,61,,0.6,23.3
352,-23.5094696,-46.7094213,2019-10-06 01:00:00,-03:00,68,https://aqicn.org/city/brazil/sao-paulo/marg.tiete-ponte-dos-remedios,,pm25,2.8,,,32.1,1012.5,24,68,,0.6,23.3
353,-22.1998744,-49.9599878,2019-10-06 02:00:00,-03:00,47,https://aqicn.org/city/brazil/sao-paulo/marilia,,pm10,,,,35.4,,47,,,,
354,-23.6693596,-46.4655954,2019-10-06 01:00:00,-03:00,38,https://aqicn.org/city/brazil/sao-paulo/maua,,pm25,43.4,,,15.5,1012.2,32,38,,1.6,22.7
355,-23.5603265,-46.5995903,2019-10-06 01:00:00,-03:00,50,https://aqicn.org/city/brazil/sao-paulo/mooca,,pm25,3.7,,,26.9,1012.4,66,50,,0.6,23.3
356,-23.6033222,-46.5111479,2019-10-06 01:00:00,-03:00,31,https://aqicn.org/city/brazil/sao-paulo/nossa-senhora-do-o,,pm10,2.8,,,19.5,1012.4,31,21,,1.6,23.3
357,-23.5279275,-46.8143874,2019-10-06 01:00:00,-03:00,71,https://aqicn.org/city/brazil/sao-paulo/osasco,,pm10,3.7,,,27.7,1012.5,71,46,,0.6,23.3
358,-21.4649748,-49.2246518,2019-10-05 20:00:00,-03:00,68,https://aqicn.org/city/brazil/sao-paulo/parelheiros,,pm25,15.4,15.7,46.1,27.3,947.4,6,68,,,28.4
359,-23.5406338,-46.6320967,2019-10-06 01:00:00,-03:00,50,https://aqicn.org/city/brazil/sao-paulo/parque-d.pedro-ii,,pm25,1.9,,,25.6,1012.4,13,50,,0.6,23.3
360,-22.7650153,-47.1500274,2019-10-06 01:00:00,-03:00,180,https://aqicn.org/city/brazil/sao-paulo/paulinia,,pm25,5.5,,78.4,10.2,1020.1,81,180,,1.1,20.5
361,-22.6794457,-47.6824383,2019-10-06 02:00:00,-03:00,104,https://aqicn.org/city/brazil/sao-paulo/paulinia-sul,,pm25,,,78.4,17.1,1020.1,54,104,,,20.5
362,-23.5630037,-46.6864347,2019-10-06 01:00:00,-03:00,50,https://aqicn.org/city/brazil/sao-paulo/pinheiros,,pm25,2.8,,,29.7,1012.2,25,50,,0.6,22.7
363,-22.7007113,-47.651941,2019-10-06 02:00:00,-03:00,104,https://aqicn.org/city/brazil/sao-paulo/piracicaba,,pm25,,,78.4,37,1020.1,62,104,,,20.5
364,-22.1205834,-51.4053949,2019-10-06 01:00:00,-03:00,30,https://aqicn.org/city/brazil/sao-paulo/presidente-prudente,,pm10,,,,22.8,,30,,,,
365,-21.1551602,-47.8276963,2019-10-06 02:00:00,-03:00,117,https://aqicn.org/city/brazil/sao-paulo/ribeirao-preto,,pm25,,,,4.9,,92,117,,,
366,,,,-03:00,-,http://aqicn.org/city/brazil/sao-paulo/s.-bernardo-do-campo/,,,,,,,,,,,,
367,-23.645681,-46.4933389,2019-10-06 02:00:00,-03:00,44,https://aqicn.org/city/brazil/sao-paulo/s.andre-capuava,,pm10,2.8,,,22.4,1012.2,44,21,,1.1,22.7
368,-23.5406338,-46.6320967,2018-08-24 05:00:00,-03:00,156,http://aqicn.org/city/brazil/sao-paulo/s.andre-paco-municipal/,,pm25,5.5,,85.5,1.3,1015.6,66,156,,5.1,19.7
369,-23.498181,-46.6263306,2019-10-06 01:00:00,-03:00,50,https://aqicn.org/city/brazil/sao-paulo/santana,,pm25,5.5,,,23.2,1012.4,66,50,,0.6,23.3
370,-23.6600932,-46.6552137,2019-10-06 01:00:00,-03:00,61,https://aqicn.org/city/brazil/sao-paulo/santo-amaro,,pm25,5.5,,,28.1,1012.5,20,61,,0.6,23.3
371,-23.9628155,-46.3202369,2019-10-06 01:00:00,-03:00,46,https://aqicn.org/city/brazil/sao-paulo/santos,,pm25,,,,24,1011.6,13,46,,0.6,25.5
372,-23.9821223,-46.3000817,2019-10-06 01:00:00,-03:00,46,https://aqicn.org/city/brazil/sao-paulo/santos-ponta-da-praia,,pm25,,,,23.2,1011.6,14,46,,0.6,25.5
373,-23.6233625,-46.5552433,2019-10-06 01:00:00,-03:00,26,https://aqicn.org/city/brazil/sao-paulo/sao-caetano-do-sul,,o3,2.8,,,26,1012.5,19,21,,0.6,23.3
374,-20.7846581,-49.3981148,2019-10-06 02:00:00,-03:00,99,https://aqicn.org/city/brazil/sao-paulo/sao-jose-do-rio-preto,,pm25,,,,15.9,,53,99,,,
375,,,,-03:00,-,http://aqicn.org/city/brazil/sao-paulo/sao-jose-dos-campos/,,,,,,,,,,,,
376,-23.5026065,-47.4776113,2019-10-06 02:00:00,-03:00,56,https://aqicn.org/city/brazil/sao-paulo/sorocaba,,pm10,,,,22.8,1012.2,56,,,,22.7
377,-23.6090545,-46.7559386,2019-10-06 01:00:00,-03:00,53,https://aqicn.org/city/brazil/sao-paulo/taboao-da-serra,,pm25,5.5,,,32.1,1012.3,22,53,,,23.3
378,-22.97572,-47.0039545,2019-10-06 01:00:00,-03:00,180,https://aqicn.org/city/brazil/sao-paulo/tatui,,pm25,5.5,,78.4,24,1020.1,16,180,,5.6,20.5
379,-12.10863,-77.00777,2019-10-05 22:00:00,-05:00,17,https://aqicn.org/city/peru/lima/san-borja,,co,17.4,13.7,87.9,13.8,1014.4,,,,,15.7
380,-12.07053,-77.04317,2019-10-05 22:00:00,-05:00,61,https://aqicn.org/city/peru/lima/campo-de-marte,,pm25,4.9,13.7,87.9,7.6,1014.4,22,61,,,15.7
381,-12.043,-76.97142,2019-10-05 22:00:00,-05:00,71,https://aqicn.org/city/peru/lima/santa-anita,,pm25,7.5,13.7,87.9,0.8,1014.4,51,71,,10.5,15.7
382,-12.16639,-76.92,2019-09-26 21:00:00,-05:00,204,https://aqicn.org/city/peru/lima/villa-maria-del-triunfo,,pm10,5.7,13.9,84.1,0.1,1012.9,204,75,,6.1,16.6
383,20.518569711338,-100.81674332276,2019-10-05 22:00:00,-05:00,48,https://aqicn.org/city/mexico/celaya/celaya-policia,,pm25,9.2,,76.5,23.2,,25,48,,6.9,17.2
384,20.537937144279,-100.84064845752,2019-10-05 23:00:00,-05:00,35,https://aqicn.org/city/mexico/celaya/celaya-san-juanico,,pm25,20.6,,,,,28,35,,,17.2
385,28.632583333333,-106.03883333333,,-05:00,-,https://aqicn.org/city/mexico/chihuahua/estacion-de-bomberos-no.5,,,,,,,1016.2,,,,,
386,31.8599083333,-116.603822222,,-05:00,-,https://aqicn.org/city/mexico/ensenada/secundaria-no.-9,,,,,,,1011.3,,,,,17.7
387,20.629554249053,-103.26392977309,2019-10-05 01:00:00,-05:00,-,https://aqicn.org/city/mexico/guadalajara/loma-dorada,,,9.1,,,21.8,,18,,,1.9,23.3
388,20.5767,-103.32652222222,2019-10-05 23:00:00,-05:00,42,https://aqicn.org/city/mexico/guadalajara/las-pintas,,pm10,8,,,11.9,848.7,42,,,2.7,21.6
389,20.61504997567,-103.34343019128,2019-10-03 13:00:00,-05:00,-,https://aqicn.org/city/mexico/guadalajara/miravalle,,,3.7,,68.6,1.5,1012.9,21,8,,3.3,23.6
390,20.641445843732,-103.31262961377,2019-10-05 01:00:00,-05:00,-,https://aqicn.org/city/mexico/guadalajara/tlaquepaque,,,,,,26,,16,,,8.6,23.3
391,20.680450840176,-103.39873310432,,-05:00,-,https://aqicn.org/city/mexico/guadalajara/vallarta,,,,,,,1011.3,,,,,
392,20.120195464739,-98.740000744464,2019-10-05 23:00:00,-05:00,32,https://aqicn.org/city/mexico/hgo/pachuca-centro,,pm25,5.1,12.4,68.9,19.4,769.8,7,32,,1.5,18.2
393,20.674779695762,-101.35569204208,2019-10-05 23:00:00,-05:00,30,https://aqicn.org/city/mexico/irapuato/irapuato-bomberos,,pm25,,,,,1011.3,27,30,,,14.4
394,21.10868,-101.68874,2019-10-05 23:00:00,-05:00,44,https://aqicn.org/city/mexico/leon/t21,,pm10,,,,,1011.3,44,,,,14.4
395,20.570367344035,-101.19007817525,2019-10-05 22:00:00,-05:00,22,https://aqicn.org/city/mexico/salamanca/nativitas,,pm10,7.3,,72.1,,1023.6,22,,,,17.5
396,19.270192914173,-99.595307048355,2019-10-05 23:00:00,-05:00,76,https://aqicn.org/city/mexico/toluca/metepec,,pm25,9,,,24.1,1029.1,30,76,,4.3,
397,19.294298341379,-99.655297086786,2019-10-05 23:00:00,-05:00,70,https://aqicn.org/city/mexico/toluca/toluca-centro,,pm25,5.3,,,20.8,1029.1,29,70,,10,
398,19.658223,-99.09659,2019-10-05 22:00:00,-05:00,34,https://aqicn.org/city/mexico/mexico/villa-de-las-flores,,pm10,3.4,,,20,1027.8,34,,,1.5,16.6
399,19.635501,-98.912003,2019-10-05 22:00:00,-05:00,21,https://aqicn.org/city/mexico/mexico/acolman,,o3,1.2,,,20.8,1028.4,20,,,1.5,16.6
400,19.601973592327,-99.176832931342,,-05:00,-,https://aqicn.org/city/mexico/mexico/tultitlan,,,,,,,1027.8,,,,,16.6
401,19.532251530332,-99.029948820132,,-05:00,-,https://aqicn.org/city/mexico/mexico/san-agunstin,,,,,,,1028.1,,,,,
402,19.525995,-99.0824,2019-10-05 22:00:00,-05:00,35,https://aqicn.org/city/mexico/mexico/xalostoc,,pm10,4.5,,,13.6,1027.8,35,34,,1.5,16.6
403,19.528397053703,-99.204241583862,,-05:00,-,https://aqicn.org/city/mexico/mexico/tlaneplantla,,,,,,,1028.1,,,,,
404,19.42461,-99.119594,2019-10-05 22:00:00,-05:00,30,https://aqicn.org/city/mexico/mexico/merced,,pm25,5.6,,,18.4,1029.1,20,30,,1.5,
405,19.384413,-99.117641,,-05:00,-,https://aqicn.org/city/mexico/mexico/iztacalco,,,,,,,1027.8,,,,,16.6
406,19.360794,-99.07388,2019-10-05 22:00:00,-05:00,21,https://aqicn.org/city/mexico/mexico/uam-iztapalapa,,pm25,5.6,,,12.8,1027.8,17,21,,1.5,16.6
407,19.325146,-99.204136,2019-10-05 22:00:00,-05:00,30,https://aqicn.org/city/mexico/mexico/pedregal,,pm25,2.3,,,20.8,1027.8,18,30,,4.3,16.6
408,19.313687302949,-99.149667649478,,-05:00,-,https://aqicn.org/city/mexico/mexico/santa-ursula,,,,,,,1028.1,,,,,
409,19.246459,-99.010564,2019-10-05 20:00:00,-05:00,55,https://aqicn.org/city/mexico/mexico/tlahuac,,pm10,2.3,,,20.8,1027.8,55,,,1.5,16.6
410,19.482473,-99.243524,2019-10-05 22:00:00,-05:00,26,https://aqicn.org/city/mexico/mexico/fes-acatlan,,pm10,5.6,,,18.4,1027.8,26,,,2.9,16.6
411,19.411617,-99.152207,2019-10-05 22:00:00,-05:00,22,https://aqicn.org/city/mexico/mexico/hospital-general-de-mexico,,o3,5.6,,,22.4,1028.4,14,17,,1.5,16.6
412,19.3863928,-99.2255625,2018-08-28 21:00:00,-05:00,38,http://aqicn.org/city/mexico/mexico/santa-fe/,,pm25,3.4,,81,20.8,1028.1,16,38,,1.5,12.4
413,19.350258,-99.157101,,-05:00,-,https://aqicn.org/city/mexico/mexico/coyoacan,,,,,,,1028.1,,,,,
414,-22.085518710314,-70.188682515839,2019-07-17 18:00:00,-03:00,500,https://aqicn.org/city/chile/escuela-e-10,,co,500,,,10.8,,30,56,,2.2,
415,-22.063792,-70.185945,2018-03-02 20:00:00,-03:00,61,http://aqicn.org/city/chile/gendarmeria/,,pm25,,,96,,,,61,,,18.26
416,-22.460270722943,-68.937706917007,2019-07-04 23:00:00,-03:00,35,https://aqicn.org/city/chile/complejo-deportivo-23-de-marzo,,pm10,8.2,,,0.9,,35,23,,1.9,
417,-22.44283906304,-68.932546346863,2019-10-06 00:00:00,-03:00,57,https://aqicn.org/city/chile/colegio-pedro-vergara-keller,,pm10,8.2,,29.5,0.9,1034.9,57,33,,1.9,5.5
418,-23.61354215815,-70.383315682411,2019-10-06 01:00:00,-03:00,46,https://aqicn.org/city/chile/antofagasta,,pm25,,,,,,32,46,,0.3,
419,-34.162314609087,-70.713919225517,2019-10-06 01:00:00,-03:00,54,https://aqicn.org/city/chile/rancagua-i,,pm25,5.8,,,,,30,54,,1.2,
420,-34.143888375919,-70.737131207664,2019-10-06 01:00:00,-03:00,75,https://aqicn.org/city/chile/rancagua-ii,,pm25,7.8,,,,,42,75,,2.9,
421,-33.516630362266,-70.588123961971,2019-10-06 00:00:00,-03:00,77,https://aqicn.org/city/chile/la-florida,,pm10,11.9,,,1.4,,77,71,,1.9,
422,-34.974925077541,-71.233967512329,2019-10-06 01:00:00,-03:00,62,https://aqicn.org/city/chile/curico,,pm25,,,,2.3,,55,62,,1.5,
423,-35.435725588722,-71.619553864003,2019-10-06 01:00:00,-03:00,63,https://aqicn.org/city/chile/u.c.-maule,,pm25,6.7,2.8,83.9,4.5,997.2,33,63,0.3,0.3,5.3
424,-35.406582744695,-71.633396474869,2019-10-06 01:00:00,-03:00,59,https://aqicn.org/city/chile/universidad-de-talca,,pm25,6.7,2.8,83.9,4.5,997.2,37,59,0.3,0.3,5.3
425,-38.74869912298,-72.620788228172,2019-10-06 00:00:00,-03:00,90,https://aqicn.org/city/chile/las-encinas-temuco,,pm25,3,,,,1022.3,37,90,,,8.3
426,-38.764767451719,-72.598795682209,2019-10-06 01:00:00,-03:00,123,https://aqicn.org/city/chile/padre-las-casas-ii,,pm25,4,,,,1022.4,44,123,,,8.3
427,-38.725302444781,-72.571192550926,2018-03-02 19:00:00,-03:00,27,http://aqicn.org/city/chile/museo-ferroviario/,,pm10,1,,66,,1009,27,14,,,18
428,-40.584478665958,-73.11871982209,2019-10-06 01:00:00,-03:00,73,https://aqicn.org/city/chile/osorno,,pm25,,,,,,23,73,,,
429,-33.422301,-70.651162,2019-10-06 01:00:00,-03:00,69,https://aqicn.org/city/chile/independencia,,pm25,5.7,,,0.5,,53,69,,,
430,-33.37677352033,-70.523326784061,2019-10-06 01:00:00,-03:00,52,https://aqicn.org/city/chile/las-condes,,pm25,2.9,,,0.7,,40,52,,,
431,-33.464142,-70.660797,2019-10-06 01:00:00,-03:00,63,https://aqicn.org/city/chile/parque-ohiggins,,pm25,7.3,,,5.3,,59,63,,,
432,-33.437811379126,-70.750171233135,2019-10-06 00:00:00,-03:00,68,https://aqicn.org/city/chile/pudahuel,,pm25,9.6,,,2.4,,51,68,,,
433,-33.495821530652,-70.704282224178,2019-10-06 01:00:00,-03:00,68,https://aqicn.org/city/chile/cerrillos,,pm25,7.5,,,27.2,,40,68,,,
434,-33.547099645619,-70.666204101852,2019-10-06 01:00:00,-03:00,78,https://aqicn.org/city/chile/el-bosque,,pm25,11.2,,,9.9,,57,78,,0.4,
435,-33.433089610143,-70.732147868717,2019-10-06 01:00:00,-03:00,68,https://aqicn.org/city/chile/cerro-navia,,pm25,12.2,,,0.4,,49,68,,,
436,-33.591390623022,-70.594788,2019-10-06 01:00:00,-03:00,64,https://aqicn.org/city/chile/puente-alto,,pm25,5.9,,,28.1,,51,64,,12.9,
437,-33.673752071375,-70.953064737434,2019-10-06 01:00:00,-03:00,62,https://aqicn.org/city/chile/talagante,,pm25,0.2,-1.1,53,1.9,966.8,26,62,,3.5,7.9
438,-33.349626928347,-70.723792612552,2019-10-06 01:00:00,-03:00,62,https://aqicn.org/city/chile/quilicura,,pm25,1.6,,,21.6,,51,62,,,
439,-39.831316104673,-73.22851282209,2019-10-06 01:00:00,-03:00,82,https://aqicn.org/city/chile/valdivia,,pm25,3.2,,,,,30,82,,3.8,
440,-22.111064,-70.210828,2018-03-08 17:00:00,-03:00,191,http://aqicn.org/city/chile/bomberos/,,pm25,8.7,,69,9.2,,5,191,,1.1,22.34
441,-22.462144644634,-68.92806169339,2019-10-06 00:00:00,-03:00,24,https://aqicn.org/city/chile/estacion-centro,,pm10,6,,,28.4,1034.9,24,18,,0.6,5.5
442,-36.594880886514,-72.089253650482,2019-10-06 01:00:00,-03:00,58,https://aqicn.org/city/chile/inia--chillan,,pm25,,,,,1014.9,20,58,,,12.7
443,-36.616167751711,-72.093040558483,2019-10-06 00:00:00,-03:00,56,https://aqicn.org/city/chile/puren,,pm25,7,,,27.7,1014.9,34,56,,4.9,12.7
444,-37.471182288689,-72.36146284977,2019-10-06 01:00:00,-03:00,52,https://aqicn.org/city/chile/21-de-mayo,,pm25,0.9,,,26.4,1014.9,21,52,,,12.7
445,-45.57996447948,-72.061125987766,2019-10-06 01:00:00,-03:00,68,https://aqicn.org/city/chile/coyhaique,,pm25,8.4,,,15.1,,29,68,,0.3,
446,39.929,116.417,2019-10-06 13:00:00,+08:00,72,https://aqicn.org/city/beijing/dongchengdongsi,,pm25,3.7,,,22,,20,72,,1.6,
447,39.886,116.407,2019-10-06 13:00:00,+08:00,59,https://aqicn.org/city/beijing/dongchengtiantan,,pm25,2.8,,,18.7,,30,59,,1.1,
448,39.929,116.339,2019-10-06 13:00:00,+08:00,74,https://aqicn.org/city/beijing/xichengguanyuan,,pm25,3.7,,,19.9,,20,74,,0.6,
449,39.878,116.352,2019-10-06 13:00:00,+08:00,82,https://aqicn.org/city/beijing/xichengwanshouxigong,,pm25,3.7,,,18.7,,24,82,,0.6,
450,39.982,116.397,2019-10-06 13:00:00,+08:00,65,https://aqicn.org/city/beijing/chaoyangaotizhongxin,,pm25,3.7,,,18.3,,22,65,,0.6,
451,39.937,116.461,2019-10-06 13:00:00,+08:00,87,https://aqicn.org/city/beijing/chaoyangnongzhanguan,,pm25,4.6,,,13.9,,30,87,,1.1,
452,39.987,116.287,2019-10-06 13:00:00,+08:00,68,https://aqicn.org/city/beijing/haidianwanliu,,pm25,2.8,,,18.7,,18,68,,1.1,
453,40.09,116.174,2019-10-06 13:00:00,+08:00,57,https://aqicn.org/city/beijing/haidianbeibuxinqu,,pm25,2.8,,,19.1,,25,57,,0.6,
454,40.002,116.207,,+08:00,-,https://aqicn.org/city/beijing/haidianbeijingzhiwuyuan,,,,,19.5,,,,,,,
455,39.863,116.279,2019-10-06 13:00:00,+08:00,57,https://aqicn.org/city/beijing/fengtaihuayuan,,pm25,2.8,,,20.4,,24,57,,0.6,
456,39.824,116.146,2019-10-06 13:00:00,+08:00,50,https://aqicn.org/city/beijing/fengtaiyungang,,pm25,2.8,,,21.6,,17,50,,0.6,
457,39.914,116.184,2019-10-06 13:00:00,+08:00,65,https://aqicn.org/city/beijing/shijingshangucheng,,pm25,2.8,,,17.9,,16,65,,1.6,
458,39.742,116.136,2019-10-06 13:00:00,+08:00,72,https://aqicn.org/city/beijing/fangshanliangxiang,,pm25,5.5,,,16.7,,32,72,,1.6,
459,39.718,116.404,2019-10-06 13:00:00,+08:00,53,https://aqicn.org/city/beijing/daxinghuangcunzhen,,pm25,6.4,,,19.5,,16,53,,0.6,
460,39.795,116.506,2019-10-06 13:00:00,+08:00,78,https://aqicn.org/city/beijing/yizhuangkaifaqu,,pm25,2.8,,,22.8,,30,78,,1.1,
461,39.886,116.663,2019-10-06 13:00:00,+08:00,82,https://aqicn.org/city/beijing/tongzhouxincheng,,pm25,3.7,,,15.9,,26,82,,1.1,
462,40.127,116.655,2019-10-06 13:00:00,+08:00,74,https://aqicn.org/city/beijing/shunyixincheng,,pm25,2.8,,,19.5,,24,74,,1.1,
463,40.217,116.23,2019-10-06 13:00:00,+08:00,68,https://aqicn.org/city/beijing/changpingzhen,,pm25,2.8,,,19.9,,18,68,,0.6,
464,39.937,116.106,2019-10-06 13:00:00,+08:00,55,https://aqicn.org/city/beijing/mentougoulongquanzhen,,pm25,2.8,,,22,,14,55,,0.6,
465,40.143,117.1,2019-10-06 13:00:00,+08:00,85,https://aqicn.org/city/beijing/pingguzhen,,pm25,2.8,,,21.6,,39,85,,1.1,
466,40.328,116.628,2019-10-06 12:00:00,+08:00,34,https://aqicn.org/city/beijing/huairouzhen,,pm25,1.9,,,23.6,,3,34,,1.6,
467,40.37,116.832,2019-10-06 13:00:00,+08:00,55,https://aqicn.org/city/beijing/miyunzhen,,pm25,2.8,,,32.9,,18,55,,1.6,
468,40.453,115.972,2019-10-06 13:00:00,+08:00,42,https://aqicn.org/city/beijing/yanqingzhen,,pm25,1.9,,,19.1,,12,42,,0.6,
469,40.292,116.22,2019-10-06 13:00:00,+08:00,46,https://aqicn.org/city/beijing/changpingdingling,,pm25,2.8,,,23.2,,11,46,,0.6,
470,40.365,115.988,2019-10-06 13:00:00,+08:00,50,https://aqicn.org/city/beijing/jingxibeibadaling,,pm25,2.8,,,8.6,,18,50,,1.6,
471,40.499,116.911,2019-10-06 13:00:00,+08:00,34,https://aqicn.org/city/beijing/jingdongbeimiyunshuiku,,pm25,1.9,,,31.7,,30,34,,1.6,
472,40.1,117.12,2019-10-06 13:00:00,+08:00,89,https://aqicn.org/city/beijing/jingdongdonggaocun,,pm25,2.8,,,17.5,,34,89,,0.6,
473,39.712,116.783,2019-10-06 13:00:00,+08:00,95,https://aqicn.org/city/beijing/jingdongnanyongledian,,pm25,3.7,,,18.7,,40,95,,1.1,
474,39.52,116.3,2019-10-06 13:00:00,+08:00,104,https://aqicn.org/city/beijing/jingnanyufa,,pm25,4.6,,,12.6,,38,104,,1.6,
475,39.58,116,2019-10-06 13:00:00,+08:00,78,https://aqicn.org/city/beijing/jingxinanliulihe,,pm25,3.7,,,11.8,,38,78,,0.6,
476,39.899,116.395,2019-09-28 15:00:00,+08:00,151,https://aqicn.org/city/beijing/qianmendongdajie,,pm25,8.2,,,101.1,,52,151,,2.1,
477,39.876,116.394,2019-10-06 13:00:00,+08:00,72,https://aqicn.org/city/beijing/yongdingmennadajie,,pm25,2.8,,,14.3,,30,72,,2.1,
478,39.954,116.349,2019-10-06 13:00:00,+08:00,72,https://aqicn.org/city/beijing/xizhimenbeidajie,,pm25,4.6,,,13.5,,25,72,,0.6,
479,39.856,116.368,2019-10-06 13:00:00,+08:00,76,https://aqicn.org/city/beijing/nansanhuanxilu,,pm25,4.6,,,13,,42,76,,2.1,
480,39.939,116.483,2019-10-06 13:00:00,+08:00,49,https://aqicn.org/city/beijing/dongsihuanbeilu,,pm10,4.6,,,6.1,,49,30,,1.6,
481,31.234814,121.410728,2019-10-06 13:00:00,+08:00,72,https://aqicn.org/city/shanghai/putuojiancezhan,,pm25,3.7,,37.5,44.3,1017.4,24,72,,2.6,27.9
482,31.2659,121.536,2019-10-06 12:00:00,+08:00,50,https://aqicn.org/city/shanghai/yangpusipiao,,pm25,3.7,,61.3,,1019.3,30,50,,2.6,23.8
483,31.20101399999999,121.483231,2019-10-06 13:00:00,+08:00,87,https://aqicn.org/city/shanghai/luwanshizhuanfuxiao,,pm25,3.7,,37.5,42.3,1017.4,32,87,,3.1,27.9
484,31.0935,120.978,2019-10-06 12:00:00,+08:00,46,https://aqicn.org/city/shanghai/qingpudianshanhu,,pm25,3.7,,,,,30,46,,3.6,
485,31.3008,121.467,2019-10-06 12:00:00,+08:00,46,https://aqicn.org/city/shanghai/hongkouliangcheng,,pm25,6.4,,33.8,36.2,1018.3,24,46,,4.1,30.4
486,31.2261,121.425,2019-10-06 12:00:00,+08:00,46,https://aqicn.org/city/shanghai/jinganjiancezhan,,pm25,2.8,,33.8,39.8,1018.3,30,46,,2.6,30.4
487,31.1654,121.412,2019-10-06 12:00:00,+08:00,39,https://aqicn.org/city/shanghai/xuhuishangshida,,o3,1.9,,33.4,38.6,1018.2,25,25,,2.6,30.6
488,31.1907,121.703,2019-10-06 12:00:00,+08:00,45,https://aqicn.org/city/shanghai/pudongchuansha,,o3,5.5,,,44.7,,29,5,,2.6,
489,31.2071,121.577,2019-10-06 13:00:00,+08:00,41,https://aqicn.org/city/shanghai/pudongzhangjiang,,o3,2.8,,60.6,40.7,1018.5,33,34,,3.6,24.2
490,31.2284,121.533,2019-10-06 13:00:00,+08:00,44,https://aqicn.org/city/shanghai/pudongjiancezhan,,o3,2.8,,60.6,43.5,1018.5,22,38,,3.6,24.2
491,31.230393,121.473704,2019-01-02 12:00:00,+08:00,161,https://aqicn.org/city/shanghai/quanshipingjun,,pm25,8.2,,53.3,22.8,1029.9,65,161,,7.1,7.3
496,41.7832349,123.4267266,2019-10-06 11:00:00,+08:00,-,https://aqicn.org/city/shenyang/usconsulate,,,7.3,-3.5,,7,,63,21,,12.7,
497,36.66222222,117.0486111,2019-10-06 13:00:00,+08:00,85,https://aqicn.org/city/shandong/jinan/shijiancezhan,,pm25,0.1,4.5,51.1,18.7,1006.4,50,85,99.3,6.1,14.5
498,36.63777778,117.0688889,2019-10-06 13:00:00,+08:00,70,https://aqicn.org/city/shandong/jinan/shandongjingjixueyuan,,pm25,0.1,4.5,51.1,21.6,1006.4,37,70,99.3,4.6,14.5
499,36.66138889,117.0211111,2019-10-06 13:00:00,+08:00,74,https://aqicn.org/city/shandong/jinan/quanchengguangchang,,pm25,0.1,4.5,51.1,16.3,1006.4,54,74,99.3,8.2,14.5
500,36.61138889,116.9880556,2019-10-06 13:00:00,+08:00,63,https://aqicn.org/city/shandong/jinan/kegansuo,,pm25,0.1,4.5,51.1,19.1,1006.4,51,63,99.3,5.1,14.5
501,36.59277778,117.0241667,2019-10-06 13:00:00,+08:00,59,https://aqicn.org/city/shandong/jinan/shandonglunen,,pm25,0.1,4.5,51.1,22,1006.4,40,59,99.3,3.6,14.5
502,36.663,116.945,2019-10-06 13:00:00,+08:00,85,https://aqicn.org/city/shandong/jinan/nongkesuo,,pm25,0.1,4.5,51.1,11.4,1006.4,53,85,99.3,6.1,14.5
503,36.64088889,116.9427778,2019-10-06 13:00:00,+08:00,63,https://aqicn.org/city/shandong/jinan/jichuangerchang,,pm25,0.1,4.5,51.1,18.7,1006.4,47,63,99.3,6.1,14.5
504,36.70027778,116.9477778,2019-10-06 13:00:00,+08:00,82,https://aqicn.org/city/shandong/jinan/lanxiangjixiao,,pm25,0.1,4.5,51.1,14.3,1006.4,51,82,99.3,6.1,14.5
505,36.68722222,116.9886111,2019-10-06 13:00:00,+08:00,89,https://aqicn.org/city/shandong/jinan/huagongchang,,pm25,0.1,4.5,51.1,10.6,1006.4,51,89,99.3,7.1,14.5
506,36.68527778,117.0602778,2019-10-06 13:00:00,+08:00,107,https://aqicn.org/city/shandong/jinan/shengzhongzicangku,,pm25,0.1,4.5,51.1,16.7,1006.4,70,107,99.3,7.1,14.5
507,36.68138889,117.1858333,2019-10-06 13:00:00,+08:00,114,https://aqicn.org/city/shandong/jinan/shandongjianzhudaxue,,pm25,0.1,4.5,51.1,5.3,1006.4,83,114,99.3,4.6,14.5
508,117.1247222,36.72256667,,+08:00,-,http://aqicn.org/city/shandong/jinan/baoshengdianlan/,,,,,94.1,,,,,0.8,,22.1
509,36.4785,117.2130556,2019-01-14 18:00:00,+08:00,194,https://aqicn.org/city/shandong/jinan/paomaling,,pm25,0.1,,70.1,28.9,1004.8,106,194,,9.7,2.7
510,36.54861111,116.7651667,2019-10-06 13:00:00,+08:00,76,https://aqicn.org/city/shandong/jinan/changqingquweidangxiao,,pm25,0.1,4.5,51.1,13,1006.4,52,76,99.3,5.6,14.5
511,36.68538889,117.1247222,2019-10-06 13:00:00,+08:00,4,https://aqicn.org/city/shandong/jinan/kaifaqu,,o3,0.1,4.5,51.1,4.1,1006.4,37,63,99.3,6.1,14.5
512,36.06525,120.403259,2019-10-06 13:00:00,+08:00,56,https://aqicn.org/city/shandong/qingdao/shinanqu1hao,,pm10,0.1,,,19.1,,56,55,,3.1,
513,36.054169,120.294134,2019-10-06 13:00:00,+08:00,42,https://aqicn.org/city/shandong/qingdao/tuandao,,pm10,0.1,,,27.7,,42,30,,4.1,
514,36.069711,120.336184,2019-10-06 13:00:00,+08:00,63,https://aqicn.org/city/shandong/qingdao/shibeiqu1hao,,pm25,0.1,,,17.5,,41,63,,2.1,
515,36.103886,120.36125,2019-10-06 13:00:00,+08:00,55,https://aqicn.org/city/shandong/qingdao/shibeiqu2hao,,pm25,0.1,,,23.6,,51,55,,3.6,
516,35.958797,120.185909,2019-10-06 13:00:00,+08:00,72,https://aqicn.org/city/shandong/qingdao/huangdaoqu1hao,,pm25,0.1,5.2,50.9,27.3,1016.1,53,72,99.7,5.1,15.3
517,35.970289,120.155109,2019-10-06 13:00:00,+08:00,76,https://aqicn.org/city/shandong/qingdao/huangdaoqu2hao,,pm25,0.1,5.2,50.9,22.4,1016.1,57,76,99.7,3.1,15.3
518,36.085636,120.446784,,+08:00,-,http://aqicn.org/city/shandong/qingdao/laoshanqu1hao/,,,,,,,,,,,,
519,36.240156,120.660697,2019-10-06 12:00:00,+08:00,55,https://aqicn.org/city/shandong/qingdao/yangkou,,pm25,0.1,,,,,37,55,,2.6,
520,36.090925,120.48547,2018-08-21 07:00:00,+08:00,25,http://aqicn.org/city/shandong/qingdao/laoshanqu2hao/,,pm25,0.1,,,22,,16,25,,1.1,
521,36.18457,120.380186,2019-10-06 13:00:00,+08:00,61,https://aqicn.org/city/shandong/qingdao/licangqu1hao,,pm25,0.1,,,23.2,,57,61,,3.1,
522,36.154078,120.427178,2018-08-21 07:00:00,+08:00,61,http://aqicn.org/city/shandong/qingdao/licangqu2hao/,,pm25,0.1,,,7.4,,26,61,,4.1,
523,36.308156,120.39492,2019-10-06 13:00:00,+08:00,72,https://aqicn.org/city/shandong/qingdao/chengyangqu1hao,,pm25,0.1,,,25.2,,63,72,,2.6,
524,120.460772,36.308156,2018-08-21 07:00:00,+08:00,31,http://aqicn.org/city/shandong/qingdao/chengyangqu2hao/,,pm10,0.1,,,15.9,,31,13,,0.6,
525,36.63777778,117.9544444,2019-10-06 13:00:00,+08:00,65,https://aqicn.org/city/shandong/zibo/zichuanqixiangzhan,,pm25,0.1,6.6,63,17.9,978.8,51,65,99.3,11.2,13.5
526,36.66555556,117.9233333,2019-10-06 13:00:00,+08:00,93,https://aqicn.org/city/shandong/zibo/fenghuangshan,,pm25,0.1,6.6,63,19.5,978.8,61,93,99.3,11.2,13.5
527,36.80833333,118.0422222,2019-10-06 13:00:00,+08:00,78,https://aqicn.org/city/shandong/zibo/renmingongyuan,,pm25,0.1,6.6,63,43.1,978.8,54,78,99.3,14.7,13.5
528,36.83805556,118.0447222,2019-10-06 13:00:00,+08:00,63,https://aqicn.org/city/shandong/zibo/dongfenghuagongchang,,pm25,0.1,6.6,63,34.2,978.8,37,63,99.3,6.6,13.5
529,36.84333333,118.0175,2019-10-06 13:00:00,+08:00,68,https://aqicn.org/city/shandong/zibo/xinqu,,pm25,0.1,6.6,63,31.3,978.8,40,68,99.3,12.7,13.5
530,36.80305556,118.0244444,2019-10-06 13:00:00,+08:00,91,https://aqicn.org/city/shandong/zibo/nanding,,pm25,0.1,6.6,63,39.4,978.8,52,91,99.3,11.7,13.5
531,36.49722222,117.8477778,2019-10-06 13:00:00,+08:00,53,https://aqicn.org/city/shandong/zibo/boshanshuangshan,,pm25,0.1,6.6,63,31.3,978.8,25,53,99.3,5.1,13.5
532,36.45972222,117.8702778,2019-10-06 13:00:00,+08:00,42,https://aqicn.org/city/shandong/zibo/qinglongshan,,pm25,0.1,6.6,63,33.3,978.8,14,42,99.3,1.1,13.5
533,36.81972222,118.3091667,2019-10-06 13:00:00,+08:00,42,https://aqicn.org/city/shandong/zibo/linziputianyuan,,pm25,0.1,6.6,63,28.5,978.8,22,42,99.3,2.6,13.5
534,36.76555556,118.2491667,2019-10-06 13:00:00,+08:00,50,https://aqicn.org/city/shandong/zibo/qilushihua,,pm25,0.1,6.6,63,30.5,978.8,32,50,99.3,3.1,13.5
535,36.80416667,117.8511111,2019-10-06 13:00:00,+08:00,85,https://aqicn.org/city/shandong/zibo/zhoucunsanjinjituan,,pm25,0.1,6.6,63,28.9,978.8,52,85,99.3,14.2,13.5
536,36.825,117.9205556,2019-10-06 13:00:00,+08:00,91,https://aqicn.org/city/shandong/zibo/zhiyexueyuan,,pm25,0.1,6.6,63,18.7,978.8,60,91,99.3,12.2,13.5
537,36.90472222,118.0158333,,+08:00,-,http://aqicn.org/city/shandong/zibo/kaifaqu/,,,,,,,,,,,,
538,34.85138889,117.5638889,2019-10-06 13:00:00,+08:00,38,https://aqicn.org/city/shandong/zaozhuang/shizhongquzhengfu,,pm25,0.1,2.9,42,28.5,999.3,20,38,99.4,5.1,15.8
539,34.82,117.5897222,2019-10-06 13:00:00,+08:00,34,https://aqicn.org/city/shandong/zaozhuang/wushuichulichang,,pm25,0.1,2.9,42,30.1,999.3,20,34,99.4,2.6,15.8
540,34.79111111,117.2666667,2019-10-06 13:00:00,+08:00,38,https://aqicn.org/city/shandong/zaozhuang/xuechengquhuanbaoju,,pm25,0.1,10.1,79.9,23.2,1020.4,26,38,,6.1,13.5
541,34.77388889,117.5708333,2019-10-06 13:00:00,+08:00,50,https://aqicn.org/city/shandong/zaozhuang/yichengquzhengfu,,pm25,0.1,2.9,42,27.7,999.3,32,50,99.4,2.6,15.8
542,34.58055556,117.7352778,2019-10-06 13:00:00,+08:00,61,https://aqicn.org/city/shandong/zaozhuang/taierzhuanghuanbaoju,,pm25,0.1,10.1,79.9,19.5,1020.4,33,61,,3.6,13.5
543,35.07083333,117.4516667,2019-10-06 13:00:00,+08:00,42,https://aqicn.org/city/shandong/zaozhuang/shantingquhuanbaoju,,pm25,0.1,2.9,42,31.3,999.3,16,42,99.4,4.1,15.8
544,34.81027778,117.3147222,2019-10-06 13:00:00,+08:00,26,https://aqicn.org/city/shandong/zaozhuang/shihuanbaoju,,o3,0.1,10.1,79.9,26,1020.4,20,25,,3.1,13.5
545,34.8225,117.3575,2019-10-06 13:00:00,+08:00,38,https://aqicn.org/city/shandong/zaozhuang/gaoxinqu,,pm25,0.1,10.1,79.9,23.6,1020.4,27,38,,5.1,13.5
546,37.43138889,118.6672222,2019-10-06 13:00:00,+08:00,55,https://aqicn.org/city/shandong/dongying/shihuanbaoju,,pm25,0.1,6.6,56.1,28.9,1023.5,31,55,99.2,4.6,15.3
547,37.37805556,118.8191667,,+08:00,-,http://aqicn.org/city/shandong/dongying/guangnanshuiku/,,,,,95.2,,1000.6,,,99.2,,21.7
548,37.43805556,118.625,2019-10-06 13:00:00,+08:00,31,https://aqicn.org/city/shandong/dongying/zhiyexueyuan,,pm10,0.1,6.6,56.1,28.1,1023.5,31,21,99.2,3.1,15.3
549,37.44166667,118.5044444,2019-10-06 13:00:00,+08:00,57,https://aqicn.org/city/shandong/dongying/xianhecaiyouchang,,pm25,0.1,6.7,59.1,39.8,1013.1,40,57,99.1,7.6,14.6
550,37.44444444,118.5527778,2019-10-06 13:00:00,+08:00,38,https://aqicn.org/city/shandong/dongying/gengjingcun,,pm25,0.1,6.7,59.1,30.5,1013.1,34,38,99.1,4.6,14.6
551,37.46583333,118.5022222,2019-10-06 13:00:00,+08:00,72,https://aqicn.org/city/shandong/dongying/shihuanbaogongsi,,pm25,0.1,6.7,59.1,35,1013.1,38,72,99.1,10.2,14.6
552,37.47222222,118.6408333,2019-10-06 13:00:00,+08:00,34,https://aqicn.org/city/shandong/dongying/shengliyiyuan,,pm25,0.1,6.6,56.1,31.7,1023.5,14,34,99.2,2.6,15.3
553,37.88305556,118.5163889,2019-10-06 13:00:00,+08:00,50,https://aqicn.org/city/shandong/dongying/hekouqu,,pm25,0.1,6.7,59.1,36.2,1013.1,38,50,99.1,8.2,14.6
554,37.43444444,118.6961111,2019-10-06 13:00:00,+08:00,32,https://aqicn.org/city/shandong/dongying/kaifaqu,,pm10,0.1,6.6,56.1,30.5,1023.5,32,30,99.2,5.1,15.3
555,37.54311096,121.371706,2019-10-06 13:00:00,+08:00,34,https://aqicn.org/city/shandong/yantai/zhouchengchang,,pm25,0.1,2.1,34.9,30.9,1009.6,23,34,,3.6,17.8
556,37.546224,121.3185607,2019-10-06 13:00:00,+08:00,42,https://aqicn.org/city/shandong/yantai/xijiaohuagongzhan,,pm25,0.1,2.1,34.9,31.7,1009.6,20,42,,3.6,17.8
557,37.52368316,121.3553673,2019-10-06 13:00:00,+08:00,36,https://aqicn.org/city/shandong/yantai/ludongdaxue,,o3,0.1,2.1,34.9,36.2,1009.6,16,21,,2.6,17.8
558,37.47141415,121.2550926,2019-10-06 13:00:00,+08:00,35,https://aqicn.org/city/shandong/yantai/fushanqujiancezhan,,o3,0.1,2.1,34.9,34.6,1009.6,18,17,,3.6,17.8
559,37.37605485,121.5817255,2019-10-06 13:00:00,+08:00,37,https://aqicn.org/city/shandong/yantai/moupingquhuanbaoju,,o3,0.1,2.7,33,36.6,1016.2,24,72,99.1,3.6,19.4
560,37.47743887,121.4430704,2019-10-06 13:00:00,+08:00,33,https://aqicn.org/city/shandong/yantai/laishanquhuanbaoju,,o3,0.1,2.1,34.9,33.3,1009.6,7,13,,3.1,17.8
561,37.42609554,121.4031242,2019-10-06 12:00:00,+08:00,50,https://aqicn.org/city/shandong/yantai/laishanshengquangongyeyuan,,pm25,0.1,2.7,33,28.1,1016.2,47,50,99.1,2.6,19.4
562,37.42276743,121.5068398,2019-10-06 13:00:00,+08:00,38,https://aqicn.org/city/shandong/yantai/zhongguonongyedaxue,,o3,0.1,2.7,33,38.2,1016.2,16,25,99.1,2.6,19.4
563,37.5599778,121.2529217,2019-10-06 13:00:00,+08:00,35,https://aqicn.org/city/shandong/yantai/kaifaquhuanbaoju,,o3,0.1,2.1,34.9,34.6,1009.6,14,9,,3.1,17.8
564,37.60240665,121.1421659,2019-10-06 13:00:00,+08:00,34,https://aqicn.org/city/shandong/yantai/kaifaqub-qu,,o3,0.1,2.1,34.9,33.8,1009.6,20,17,,1.6,17.8
565,37.67283315,121.0662505,2019-10-06 13:00:00,+08:00,33,https://aqicn.org/city/shandong/yantai/dajijia,,o3,0.1,2.1,34.9,32.5,1009.6,12,9,,1.6,17.8
566,36.73055556,119.0919444,2019-10-06 13:00:00,+08:00,104,https://aqicn.org/city/shandong/weifang/liujiayuan,,pm25,0.1,6.6,56.1,12.6,1023.5,66,104,99.2,6.6,15.3
567,36.71955556,119.0481667,,+08:00,-,http://aqicn.org/city/shandong/weifang/jingjikaifaqu/,,,,,95.2,,1000.6,,,99.2,,21.7
568,36.68194444,119.0999444,2019-10-06 13:00:00,+08:00,93,https://aqicn.org/city/shandong/weifang/shangxiao,,pm25,0.1,6.6,56.1,16.7,1023.5,61,93,99.2,13.2,15.3
569,36.77305556,119.1938889,2019-10-06 13:00:00,+08:00,114,https://aqicn.org/city/shandong/weifang/hantingqu,,pm25,0.1,6.6,56.1,14.3,1023.5,65,114,99.2,9.2,15.3
570,36.65722222,119.1613889,2019-10-06 13:00:00,+08:00,76,https://aqicn.org/city/shandong/weifang/gongdagongsi,,pm25,0.1,6.6,56.1,14.7,1023.5,62,76,99.2,7.1,15.3
571,36.70083333,119.1625,2019-10-06 13:00:00,+08:00,91,https://aqicn.org/city/shandong/weifang/shihuanbaoju,,pm25,0.1,6.6,56.1,14.3,1023.5,51,91,99.2,5.6,15.3
572,36.70194444,119.14,2019-10-06 13:00:00,+08:00,95,https://aqicn.org/city/shandong/weifang/shizhongcaiwei,,pm25,0.1,6.6,56.1,12.2,1023.5,61,95,99.2,6.6,15.3
573,36.64111111,119.1108333,2019-10-06 13:00:00,+08:00,91,https://aqicn.org/city/shandong/weifang/xinhuijituan,,pm25,0.1,6.6,56.1,17.9,1023.5,61,91,99.2,8.2,15.3
574,36.77305556,119.1095667,2019-10-06 13:00:00,+08:00,102,https://aqicn.org/city/shandong/weifang/jinchengzhongxue,,pm25,0.1,6.6,56.1,14.7,1023.5,70,102,99.2,7.6,15.3
575,35.40888889,116.6186111,2019-10-06 13:00:00,+08:00,124,https://aqicn.org/city/shandong/jining/shijiancezhan,,pm25,0.1,10.5,83.1,11,1006.8,39,124,99.3,3.1,13.3
576,35.42505556,116.6936111,2019-05-22 14:00:00,+08:00,67,https://aqicn.org/city/shandong/jining/shengdidujiacun,,pm10,0.1,,38,57.8,1005.4,67,,,8.2,27.6
577,35.36477778,116.6038889,2019-10-06 13:00:00,+08:00,46,https://aqicn.org/city/shandong/jining/wushuichulichang,,pm25,0.1,10.5,83.1,23.6,1006.8,17,46,99.3,5.1,13.3
578,35.39088889,116.5476111,2019-10-06 13:00:00,+08:00,74,https://aqicn.org/city/shandong/jining/dianhuachang,,pm25,0.1,10.5,83.1,13,1006.8,29,74,99.3,3.1,13.3
579,35.39088889,116.6576111,2019-10-06 13:00:00,+08:00,61,https://aqicn.org/city/shandong/jining/renchengkaifaqu,,pm25,0.1,10.5,83.1,13.9,1006.8,22,61,99.3,5.1,13.3
580,35.44277778,116.5963889,2019-10-06 13:00:00,+08:00,76,https://aqicn.org/city/shandong/jining/nongyexuexiao,,pm25,0.1,10.5,83.1,12.2,1006.8,20,76,99.3,4.1,13.3
581,35.43677778,116.6376111,2019-10-06 13:00:00,+08:00,74,https://aqicn.org/city/shandong/jining/kaifaquhuojucheng,,pm25,0.1,10.5,83.1,8.2,1006.8,36,74,99.3,1.6,13.3
582,36.19416667,117.1536111,2019-10-06 13:00:00,+08:00,57,https://aqicn.org/city/shandong/taian/taishanjiancezhan,,pm25,0.1,-7.8,35,27.7,852.7,36,57,99.3,6.1,6.6
583,36.17583333,117.1180556,2019-10-06 13:00:00,+08:00,53,https://aqicn.org/city/shandong/taian/shandongdianlixuexiao,,pm25,0.1,-7.8,35,24,852.7,39,53,99.3,6.1,6.6
584,36.19416667,117.0980556,2019-10-06 13:00:00,+08:00,57,https://aqicn.org/city/shandong/taian/renkouxuexiao,,pm25,0.1,-7.8,35,26.4,852.7,35,57,99.3,4.1,6.6
585,36.20472222,117.1841667,2019-10-06 13:00:00,+08:00,68,https://aqicn.org/city/shandong/taian/houfenggongsi,,pm25,0.1,-7.8,35,22.4,852.7,35,68,99.3,6.1,6.6
586,36.17,117.1591667,,+08:00,-,http://aqicn.org/city/shandong/taian/nongdaxinxiao/,,,,,30,,,,,99.2,,19.2
587,36.20194444,117.0411111,2019-10-06 13:00:00,+08:00,50,https://aqicn.org/city/shandong/taian/jiaotongjixiao,,pm25,0.1,-7.8,35,26,852.7,28,50,99.3,4.1,6.6
588,36.11638889,117.1013889,2019-10-06 13:00:00,+08:00,74,https://aqicn.org/city/shandong/taian/xintongkeji,,pm25,0.1,-7.8,35,19.5,852.7,33,74,99.3,7.1,6.6
589,37.51292649,122.0620045,2019-10-06 13:00:00,+08:00,40,https://aqicn.org/city/shandong/weihai/shihuanjingjiancezhan,,o3,0.1,8.6,52.2,39.8,1018.4,30,38,,2.6,18.6
590,37.32453537,122.1558142,2019-10-06 13:00:00,+08:00,29,https://aqicn.org/city/shandong/weihai/mugongjixiechang,,o3,0.1,8.6,52.2,29.3,1018.4,22,5,,4.1,18.6
591,37.51363425,122.1412574,2019-10-06 13:00:00,+08:00,37,https://aqicn.org/city/shandong/weihai/lantianbinguan,,o3,0.1,8.6,52.2,37.4,1018.4,19,30,,2.6,18.6
592,37.48458826,122.0444208,2019-10-06 13:00:00,+08:00,35,https://aqicn.org/city/shandong/weihai/zhangcunzhengfu,,o3,0.1,8.6,52.2,34.6,1018.4,19,5,,3.1,18.6
593,37.53392123,122.0512579,2019-10-06 13:00:00,+08:00,37,https://aqicn.org/city/shandong/weihai/gaoqujiaoxing,,o3,0.1,8.6,52.2,37,1018.4,12,34,,2.6,18.6
594,37.42694682,122.1257714,2019-10-06 13:00:00,+08:00,37,https://aqicn.org/city/shandong/weihai/huaxiajixiao,,o3,0.1,8.6,52.2,37,1018.4,21,30,,2.1,18.6
595,35.40777778,119.5205556,2019-10-06 13:00:00,+08:00,40,https://aqicn.org/city/shandong/rizhao/shizhengfuguangchang,,o3,0.1,6.7,47,39.8,1005.6,31,30,,2.6,18.2
596,35.38166667,119.5486111,2019-10-06 13:00:00,+08:00,50,https://aqicn.org/city/shandong/rizhao/gangwuju,,pm25,0.1,6.7,47,39,1005.6,33,50,,2.6,18.2
597,35.38888889,119.4908333,2019-10-06 13:00:00,+08:00,46,https://aqicn.org/city/shandong/rizhao/shijiancezhan,,pm25,0.1,6.7,47,35.8,1005.6,38,46,,2.1,18.2
598,35.4625,119.5688889,2019-10-06 13:00:00,+08:00,50,https://aqicn.org/city/shandong/rizhao/jiaoshouhuayuan,,pm25,0.1,6.7,47,38.2,1005.6,20,50,,2.1,18.2
599,35.44222222,119.5327778,2019-10-06 13:00:00,+08:00,50,https://aqicn.org/city/shandong/rizhao/zhiyejishuxueyuan,,pm25,0.1,6.7,47,39.4,1005.6,31,50,,2.6,18.2
600,35.29361111,119.34,2019-10-06 13:00:00,+08:00,42,https://aqicn.org/city/shandong/rizhao/lanshanhuanbaofenju,,pm25,0.1,6.7,47,31.3,1005.6,34,42,,3.1,18.2
601,35.37361111,119.5086111,2019-10-06 13:00:00,+08:00,57,https://aqicn.org/city/shandong/rizhao/jinmagongyeyuan,,pm25,0.1,6.7,47,32.5,1005.6,29,57,,1.6,18.2
602,36.205,117.695,2019-10-06 13:00:00,+08:00,89,https://aqicn.org/city/shandong/laiwu/zhiwuyouchang,,pm25,0.1,6.6,63,8.2,978.8,59,89,99.3,14.2,13.5
603,36.22888889,117.6888889,,+08:00,-,http://aqicn.org/city/shandong/laiwu/zhiyejishuxueyuan/,,,,,100,,966.8,,,0.3,,20.2
604,36.26611111,117.6469444,2019-10-06 13:00:00,+08:00,127,https://aqicn.org/city/shandong/laiwu/laoniangongyu,,pm25,0.1,6.6,63,11,978.8,70,127,99.3,14.7,13.5
605,36.245,117.7330556,2019-10-06 13:00:00,+08:00,82,https://aqicn.org/city/shandong/laiwu/xinyizhongxue,,pm25,0.1,6.6,63,20.8,978.8,44,82,99.3,9.7,13.5
606,36.20805556,117.725,2019-10-06 13:00:00,+08:00,74,https://aqicn.org/city/shandong/laiwu/richengguojixuexiao,,pm25,0.1,6.6,63,7.4,978.8,55,74,99.3,10.2,13.5
607,36.06694444,117.8661111,2019-10-06 13:00:00,+08:00,38,https://aqicn.org/city/shandong/laiwu/gangchengquhuanbaoju,,pm25,0.1,6.6,63,25.2,978.8,34,38,99.3,8.7,13.5
608,35.06222222,118.2938889,2019-10-06 13:00:00,+08:00,76,https://aqicn.org/city/shandong/linyi/lunanzhiyaochang,,pm25,0.1,2.9,42,28.1,999.3,37,76,99.4,3.6,15.8
609,35.05722222,118.3416667,2019-10-06 13:00:00,+08:00,55,https://aqicn.org/city/shandong/linyi/yihexiaoqu,,pm25,0.1,2.9,42,26.9,999.3,38,55,99.4,3.1,15.8
610,35.11527778,118.2877778,2019-10-06 13:00:00,+08:00,50,https://aqicn.org/city/shandong/linyi/linyidaxue,,pm25,0.1,2.9,42,26.4,999.3,39,50,99.4,3.1,15.8
611,35.10527778,118.3477778,2019-10-06 13:00:00,+08:00,55,https://aqicn.org/city/shandong/linyi/shihuanbaojunanfang,,pm25,0.1,2.9,42,28.1,999.3,35,55,99.4,3.6,15.8
612,34.98166667,118.2763889,2019-10-06 13:00:00,+08:00,46,https://aqicn.org/city/shandong/linyi/xinguangmaofangchang,,pm25,0.1,2.9,42,28.9,999.3,41,46,99.4,2.6,15.8
613,34.99944444,118.2516667,2019-10-06 13:00:00,+08:00,59,https://aqicn.org/city/shandong/linyi/hongfujiuye,,pm25,0.1,2.9,42,28.1,999.3,40,59,99.4,3.6,15.8
614,35.08972222,118.4023333,2019-10-06 13:00:00,+08:00,57,https://aqicn.org/city/shandong/linyi/hedongbaoxiangongsi,,pm25,0.1,2.9,42,27.7,999.3,35,57,99.4,3.1,15.8
615,35.01055556,118.43,2019-10-06 13:00:00,+08:00,50,https://aqicn.org/city/shandong/linyi/jianghuaqimao,,pm25,0.1,2.9,42,28.1,999.3,41,50,99.4,3.1,15.8
616,37.46527778,116.3083333,,+08:00,-,http://aqicn.org/city/shandong/dezhou/heimajituan/,,,,,95.8,,,,,0.1,,20.8
617,37.46638889,116.3061111,2019-10-06 13:00:00,+08:00,65,https://aqicn.org/city/shandong/dezhou/ertongleyuan,,pm25,0.1,,61.9,24,1010.9,37,65,99.1,6.6,14.2
618,37.43222222,116.3713889,2019-10-06 13:00:00,+08:00,68,https://aqicn.org/city/shandong/dezhou/jiancezhan,,pm25,0.1,,61.9,23.2,1010.9,40,68,99.1,8.2,14.2
619,37.44888889,116.3188889,2019-10-06 13:00:00,+08:00,82,https://aqicn.org/city/shandong/dezhou/jianlizhan,,pm25,0.1,,61.9,27.3,1010.9,35,82,99.1,6.6,14.2
620,37.46194444,116.3516667,2019-10-06 13:00:00,+08:00,80,https://aqicn.org/city/shandong/dezhou/huayujixiao,,pm25,0.1,,61.9,28.5,1010.9,39,80,99.1,7.1,14.2
621,37.47805556,116.3105556,2019-05-22 14:00:00,+08:00,86,https://aqicn.org/city/shandong/dezhou/shuangyijituan,,o3,0.1,12.2,36.1,86.4,1005.4,59,70,,6.6,28.7
622,36.44444444,115.9661111,2019-10-06 13:00:00,+08:00,99,https://aqicn.org/city/shandong/liaocheng/dongchangquzhengfu,,pm25,0.1,10.4,89.9,23.6,1007.7,47,99,,3.6,
623,36.45666667,115.9966667,,+08:00,-,http://aqicn.org/city/shandong/liaocheng/erqingjixiechang/,,,,,95.8,,998.1,,,99.1,,22.9
624,36.47944444,115.9836111,2019-10-06 13:00:00,+08:00,91,https://aqicn.org/city/shandong/liaocheng/shiweidangxiao,,pm25,0.1,10.4,89.9,14.3,1007.7,45,91,,3.6,
625,36.43194444,115.9513889,2019-10-06 13:00:00,+08:00,74,https://aqicn.org/city/shandong/liaocheng/haiguan,,pm25,0.1,10.4,89.9,28.1,1007.7,39,74,,2.6,
626,36.47111111,115.9547222,2019-05-22 14:00:00,+08:00,112,https://aqicn.org/city/shandong/liaocheng/hongshunhuayuan,,o3,0.1,10.5,29.1,112.1,1003.6,70,82,,11.7,30.5
627,36.45916667,116.0377778,2019-10-06 13:00:00,+08:00,70,https://aqicn.org/city/shandong/liaocheng/kaifaqu,,pm25,0.1,10.4,89.9,22.4,1007.7,35,70,,3.1,
628,37.37944444,118.0208333,2019-10-06 13:00:00,+08:00,50,https://aqicn.org/city/shandong/binzhou/shihuanbaoju,,pm25,0.1,6.7,59.1,26.9,1013.1,35,50,99.1,5.1,14.6
629,37.38305556,117.9830556,2019-10-06 13:00:00,+08:00,53,https://aqicn.org/city/shandong/binzhou/beizhongxinxiao,,pm25,0.1,6.7,59.1,24.8,1013.1,20,53,99.1,6.6,14.6
630,37.36083333,117.9966667,2019-10-06 13:00:00,+08:00,76,https://aqicn.org/city/shandong/binzhou/diershuichang,,pm25,0.1,6.7,59.1,22.8,1013.1,43,76,99.1,5.1,14.6
631,37.39555556,117.9377778,2019-10-06 13:00:00,+08:00,42,https://aqicn.org/city/shandong/binzhou/kelinghuagong,,pm25,0.1,6.7,59.1,29.7,1013.1,22,42,99.1,5.1,14.6
632,37.35555556,117.9375,2019-05-22 14:00:00,+08:00,134,https://aqicn.org/city/shandong/binzhou/yinhewuliu,,pm25,0.1,12.3,35.9,104.6,,93,134,,21.3,28.9
633,37.3675,117.9730556,2019-10-06 13:00:00,+08:00,53,https://aqicn.org/city/shandong/binzhou/bilinxiaoqu,,pm25,0.1,6.7,59.1,27.7,1013.1,35,53,99.1,5.6,14.6
634,35.24888889,115.4227778,2019-10-06 13:00:00,+08:00,114,https://aqicn.org/city/shandong/heze/qixiangju,,pm25,0.1,10.1,83.1,11,1006.6,42,114,99.9,2.6,12.9
635,35.22305556,115.5258333,2019-02-15 16:00:00,+08:00,176,https://aqicn.org/city/shandong/heze/wushuichulichang,,pm25,0.1,,78,32.5,,97,176,99.3,6.6,0.5
636,35.2375,115.4747222,2019-10-06 13:00:00,+08:00,109,https://aqicn.org/city/shandong/heze/shizhengxie,,pm25,0.1,10.1,83.1,11.8,1006.6,43,109,99.9,4.1,12.9
637,35.24361111,115.4086111,2019-10-06 13:00:00,+08:00,99,https://aqicn.org/city/shandong/heze/mudangaoxinqu,,pm25,0.1,10.1,83.1,14.3,1006.6,50,99,99.9,3.1,12.9
638,35.26194444,115.5191667,2019-10-06 13:00:00,+08:00,72,https://aqicn.org/city/shandong/heze/huarunzhiyao,,pm25,0.1,10.1,83.1,13.9,1006.6,31,72,99.9,4.1,12.9
639,35.27,115.455,2019-10-06 13:00:00,+08:00,109,https://aqicn.org/city/shandong/heze/hezexueyuan,,pm25,0.1,10.1,83.1,11.8,1006.6,36,109,99.9,2.6,12.9
640,36.22888889,117.6888889,2019-10-06 13:00:00,+08:00,104,https://aqicn.org/city/shandong/laiwu/shihuanbaoju,,pm25,0.1,6.6,63,12.2,978.8,57,104,99.3,16.8,13.5
641,38.031,114.542,2019-10-06 13:00:00,+08:00,89,https://aqicn.org/city/hebei/shijiazhuangshi/shijigongyuan,,pm25,0.1,,,6.5,,53,89,,7.1,
642,38.012,114.467,2019-10-06 13:00:00,+08:00,99,https://aqicn.org/city/hebei/shijiazhuangshi/xinangaojiao,,pm25,0.1,8.3,64.2,11,1017.6,53,99,,3.6,
643,,,,,-,http://aqicn.org/city/hebei/shijiazhuangshi/huagongxuexiao/,,,,,76,,1011,,,,,11
644,38.051,114.455,2019-10-06 13:00:00,+08:00,82,https://aqicn.org/city/hebei/shijiazhuangshi/zhigongyiyuan,,pm25,3.7,8.3,64.2,17.1,1017.6,47,82,,6.1,
645,38.052,114.521,2019-10-06 13:00:00,+08:00,91,https://aqicn.org/city/hebei/shijiazhuangshi/renminhuitang,,pm25,1.4,,,12.2,,53,91,,8.2,
646,38.14,114.502,2019-10-06 13:00:00,+08:00,59,https://aqicn.org/city/hebei/shijiazhuangshi/xibeishuiyuan,,pm25,1.9,,,15.1,,58,59,,5.6,
647,38.04,114.605,2019-10-06 13:00:00,+08:00,97,https://aqicn.org/city/hebei/shijiazhuangshi/gaoxinqu,,pm25,2.5,,,10.6,,51,97,,6.1,
648,37.91,114.354,2019-10-06 13:00:00,+08:00,89,https://aqicn.org/city/hebei/shijiazhuangshi/fenglongshan,,pm25,3.5,8.3,64.2,27.7,1017.6,42,89,,4.1,
649,39.658,118.184,2019-10-06 13:00:00,+08:00,102,https://aqicn.org/city/hebei/tangshanshi/12zhong,,,,,,,,,,,,
650,39.668,118.219,2019-10-06 13:00:00,+08:00,63,https://aqicn.org/city/hebei/tangshanshi/taocigongsi,,pm25,4.4,,,17.5,,50,63,,3.1,
651,39.63,118.2,2019-10-06 13:00:00,+08:00,78,https://aqicn.org/city/hebei/tangshanshi/xiaoshanzizhan,,,,,,,,,,,,
652,39.641,118.185,2019-10-06 13:00:00,+08:00,80,https://aqicn.org/city/hebei/tangshanshi/wuziju,,pm25,0.1,,,15.1,,33,80,,5.6,
653,39.643,118.144,2019-10-06 13:00:00,+08:00,68,https://aqicn.org/city/hebei/tangshanshi/leidazhanzizhan,,pm25,0.1,,,16.7,,45,68,,4.6,
654,39.631,118.166,2019-10-06 13:00:00,+08:00,74,https://aqicn.org/city/hebei/tangshanshi/gongxiaoshe,,pm25,0.1,,,22.4,,47,74,,4.1,
655,39.957,119.602,2019-10-06 13:00:00,+08:00,25,https://aqicn.org/city/hebei/qinhuangdaoshi/shijiancezhan,,pm25,0.1,0.8,38,24,996.9,21,25,99.2,3.1,
656,39.828,119.526,2019-10-06 13:00:00,+08:00,25,https://aqicn.org/city/hebei/qinhuangdaoshi/beidaihe,,pm25,0.1,,34,24.4,,16,25,,8.7,18.1
657,40.018,119.762,2019-10-06 12:00:00,+08:00,29,https://aqicn.org/city/hebei/qinhuangdaoshi/diyiguan,,o3,0.1,0.8,38,28.9,996.9,11,25,99.2,5.6,
658,39.942,119.537,2019-10-06 13:00:00,+08:00,55,https://aqicn.org/city/hebei/qinhuangdaoshi/jianshedaxia,,pm25,0.1,0.8,38,22,996.9,33,55,99.2,5.1,
659,,,,,-,http://aqicn.org/city/hebei/qinhuangdaoshi/shizhengfu/,,,,,,,,,,,,
660,36.62,114.496,2019-10-06 12:00:00,+08:00,22,https://aqicn.org/city/hebei/handanshi/congtaigongyuan,,o3,0.1,10.3,87,22.4,1003.9,17,17,99.2,0.6,12.4
661,36.618,114.513,2019-10-06 13:00:00,+08:00,74,https://aqicn.org/city/hebei/handanshi/shihuanbaoju,,pm25,0.1,10.3,87,24,1003.9,29,74,99.2,1.1,12.4
662,36.616,114.543,2019-10-06 13:00:00,+08:00,80,https://aqicn.org/city/hebei/handanshi/dongwushui,,pm25,4.3,10.3,87,22,1003.9,30,80,99.2,1.1,12.4
663,36.578,114.504,2019-10-06 13:00:00,+08:00,74,https://aqicn.org/city/hebei/handanshi/kuangyuan,,pm25,5.2,10.3,87,24.4,1003.9,37,74,99.2,1.6,12.4
664,37.096,114.533,2019-10-06 12:00:00,+08:00,74,https://aqicn.org/city/hebei/xingtaishi/luqiaogongsi,,pm25,17.8,10.3,87,16.3,1003.9,38,74,99.2,4.1,12.4
665,37.097,114.482,2019-10-06 13:00:00,+08:00,109,https://aqicn.org/city/hebei/xingtaishi/dahuoquan,,pm25,0.1,10.3,87,13.9,1003.9,44,109,99.2,1.1,12.4
666,37.053,114.526,2019-10-06 12:00:00,+08:00,107,https://aqicn.org/city/hebei/xingtaishi/xingshigaozhuan,,pm25,13.7,10.3,87,15.5,1003.9,52,107,99.2,1.6,12.4
667,37.062,114.485,2019-10-06 13:00:00,+08:00,112,https://aqicn.org/city/hebei/xingtaishi/huanbaoju,,pm25,0.1,10.3,87,15.1,1003.9,57,112,99.2,2.6,12.4
668,38.871,115.521,2019-10-06 13:00:00,+08:00,74,https://aqicn.org/city/hebei/baodingshi/shijiancezhan,,pm25,2.3,7.9,62.1,23.6,1026.3,36,74,0.1,3.6,15.1
669,38.842,115.461,2019-10-06 13:00:00,+08:00,76,https://aqicn.org/city/hebei/baodingshi/dibiaoshuichang,,pm25,0.1,7.9,62.1,18.7,1026.3,51,76,0.1,3.1,15.1
670,38.896,115.522,2019-10-06 13:00:00,+08:00,82,https://aqicn.org/city/hebei/baodingshi/huadianerqu,,pm25,2.6,7.9,62.1,23.6,1026.3,33,82,0.1,2.6,15.1
671,38.911,115.471,2019-10-06 13:00:00,+08:00,78,https://aqicn.org/city/hebei/baodingshi/jiedaizhongxin,,pm25,0.1,7.9,62.1,18.7,1026.3,40,78,0.1,3.6,15.1
672,38.876,115.442,2019-10-06 13:00:00,+08:00,80,https://aqicn.org/city/hebei/baodingshi/jiaopianchang,,pm25,3.2,7.9,62.1,17.1,1026.3,39,80,0.1,3.1,15.1
673,38.863,115.493,2019-10-06 13:00:00,+08:00,74,https://aqicn.org/city/hebei/baodingshi/youyongguan,,pm25,1.7,7.9,62.1,20.8,1026.3,33,74,0.1,3.6,15.1
674,40.769,114.903,2019-10-06 13:00:00,+08:00,57,https://aqicn.org/city/hebei/zhangjiakoushi/shijihaoyuan,,pm10,3.4,-0.2,45,11.4,935.6,57,50,0.3,7.6,11.3
675,40.873,114.904,2019-10-06 13:00:00,+08:00,34,https://aqicn.org/city/hebei/zhangjiakoushi/beibengfang,,pm25,2.4,-0.2,45,20.8,935.6,22,34,0.3,2.6,11.3
676,40.837,114.898,2019-10-06 13:00:00,+08:00,34,https://aqicn.org/city/hebei/zhangjiakoushi/renmingongyuan,,pm25,0.1,-0.2,45,21.2,935.6,16,34,0.3,3.6,11.3
677,40.811,114.881,2019-10-06 13:00:00,+08:00,46,https://aqicn.org/city/hebei/zhangjiakoushi/wujinku,,pm25,0.1,-0.2,45,15.9,935.6,38,46,0.3,5.6,11.3
678,,,,,-,http://aqicn.org/city/hebei/zhangjiakoushi/tanjichang/,,,,,15,,1012,,,,,8
679,40.916,117.966,2019-10-06 13:00:00,+08:00,76,https://aqicn.org/city/hebei/chengdeshi/tielu,,pm25,7.3,1.7,47.1,13.9,976.1,40,76,99.2,13.2,12.7
680,40.973,117.818,2019-10-06 13:00:00,+08:00,76,https://aqicn.org/city/hebei/chengdeshi/wenhuazhongxin,,pm25,25.3,1.7,47.1,9,976.1,70,76,99.2,37.5,12.7
681,40.984,117.952,2019-10-06 13:00:00,+08:00,63,https://aqicn.org/city/hebei/chengdeshi/zhongguoyinxing,,pm25,0.1,1.7,47.1,13.5,976.1,31,63,99.2,17.3,12.7
682,40.936,117.963,2019-10-06 13:00:00,+08:00,46,https://aqicn.org/city/hebei/chengdeshi/kaifaqu,,pm25,6.6,1.7,47.1,9,976.1,27,46,99.2,10.2,12.7
683,41.011,117.938,2019-10-06 13:00:00,+08:00,38,https://aqicn.org/city/hebei/chengdeshi/ligong,,pm25,7.5,1.7,47.1,14.3,976.1,31,38,99.2,10.7,12.7
684,38.323,116.871,2019-10-06 13:00:00,+08:00,38,https://aqicn.org/city/hebei/cangzhoushi/cangzhoushihuanbaoju,,pm25,0.1,,,30.1,,27,38,,5.1,
685,38.299,116.885,2019-10-06 13:00:00,+08:00,59,https://aqicn.org/city/hebei/cangzhoushi/cangxianchengjianju,,pm25,0.1,,,28.1,,27,59,,6.1,
686,38.325,116.858,2019-10-06 13:00:00,+08:00,34,https://aqicn.org/city/hebei/cangzhoushi/dianshizhuanbozhan,,pm25,0.1,,,33.3,,27,34,,6.1,
687,39.557,116.715,2019-09-28 09:00:00,+08:00,155,https://aqicn.org/city/hebei/langfangshi/huanjingjiancejianlizhongxin,,,,,72.5,,1018.5,,,,,
688,39.518,116.684,2019-10-06 13:00:00,+08:00,76,https://aqicn.org/city/hebei/langfangshi/yaocaigongsi,,pm25,0.1,,,7.8,,36,76,,2.1,
689,39.575,116.773,2019-10-06 13:00:00,+08:00,89,https://aqicn.org/city/hebei/langfangshi/kaifaqu,,pm25,0.1,,,17.1,,50,89,,2.6,
690,39.534,116.737,2019-10-06 13:00:00,+08:00,82,https://aqicn.org/city/hebei/langfangshi/beihuahangtianxueyuan,,pm25,0.1,,,17.9,,37,82,,3.6,
691,37.739,115.69,2019-10-06 12:00:00,+08:00,65,https://aqicn.org/city/hebei/hengshuishi/hengshuishihuanbaoju,,pm25,6.1,2.3,38,13.9,1024.9,35,65,0.5,4.1,16.7
692,37.738,115.643,2019-10-06 13:00:00,+08:00,74,https://aqicn.org/city/hebei/hengshuishi/huanjingjiancezhan,,pm25,0.1,2.3,38,16.3,1024.9,30,74,0.5,5.1,16.7
693,37.758,115.695,2019-10-06 13:00:00,+08:00,63,https://aqicn.org/city/hebei/hengshuishi/dianjibeichang,,pm25,0.1,2.3,38,17.5,1024.9,31,63,0.5,4.6,16.7
694,117.15778,39.09812,,+0800,-,http://aqicn.org/city/tianjin/fukanglu/,,,,,,,,,,,,
695,39.17295,117.1933667,2019-10-06 13:00:00,+08:00,80,https://aqicn.org/city/tianjin/nankoulu,,pm25,4.6,,,,,51,80,,3.1,
696,39.16543333,117.1446333,2019-10-06 13:00:00,+08:00,89,https://aqicn.org/city/tianjin/qinjiandao,,pm25,2.8,,,,,50,89,,3.1,
697,39.11991,117.18879,2016-06-01 10:00:00,+0800,-,http://aqicn.org/city/tianjin/nanjinglu/,,,25.1,,16,27,1011,70,104,,20.3,27
698,39.11083,117.2452,2019-10-06 13:00:00,+08:00,59,https://aqicn.org/city/tianjin/dazhigubahaolu,,pm25,5.5,,,,,21,59,,4.1,
699,39.0927,117.2016833,2019-10-06 13:00:00,+08:00,87,https://aqicn.org/city/tianjin/qianjindao,,pm25,4.6,,,,,50,87,,3.6,
700,39.22605,117.18495,2019-10-06 13:00:00,+08:00,102,https://aqicn.org/city/tianjin/huaihedao,,pm25,7.3,,,,,49,102,,4.1,
701,39.13375,117.2688333,2016-03-15 09:00:00,+0800,-,http://aqicn.org/city/tianjin/xiangshandao/,,,15.4,,29,12,1015,130,165,,27.4,14
702,39.08714,117.3145,2019-10-06 13:00:00,+08:00,70,https://aqicn.org/city/tianjin/yuejinlu,,pm25,5.5,,,,,40,70,,4.1,
703,39.0635,117.225,,+0800,-,http://aqicn.org/city/tianjin/zhujiangdao/,,,,,,,,,,,,
704,39.03431667,117.70715,2019-10-06 13:00:00,+08:00,65,https://aqicn.org/city/tianjin/disidajie,,pm25,10,,,,,24,65,,4.6,
705,38.83945,117.45735,2019-10-06 13:00:00,+08:00,46,https://aqicn.org/city/tianjin/yongminglu,,pm25,2.8,,,,,19,46,,1.1,
706,39.13766667,117.0039333,,+0800,-,http://aqicn.org/city/tianjin/xinhuadao/,,,,,,,,,,,,
707,38.98458333,117.3747333,2019-10-06 13:00:00,+08:00,59,https://aqicn.org/city/tianjin/jingulu,,pm25,5.5,,,,,20,59,,3.1,
708,39.02096667,117.6503,2019-10-06 13:00:00,+08:00,70,https://aqicn.org/city/tianjin/tangguyingkoudao,,pm25,7.3,,,,,22,70,,8.7,
709,39.24735,117.7917667,2019-10-06 13:00:00,+08:00,27,https://aqicn.org/city/tianjin/hexiyijinglu,,pm10,6.4,,,,,27,25,,5.1,
710,39.7188,117.30415,,+0800,-,http://aqicn.org/city/tianjin/jianshelu/,,,,,,,,,,,,
711,39.37261667,117.0439833,2016-10-19 10:00:00,+0800,-,http://aqicn.org/city/tianjin/quanzhounanlu/,,,26,,60,7,1015,127,252,,10,22
712,40.04175,117.4444167,2017-08-23 19:00:00,+08:00,74,http://aqicn.org/city/tianjin/donghuanlu/,,pm25,9.1,,55,56.5,1005,83,74,,2.1,30
713,38.91943333,117.1566333,2019-10-06 13:00:00,+08:00,55,https://aqicn.org/city/tianjin/tuanbowa,,pm25,3.7,,,,,20,55,,3.1,
714,39.32815,117.8165667,2019-10-06 13:00:00,+08:00,87,https://aqicn.org/city/tianjin/guangminglu,,pm25,9.1,,,,,30,87,,3.6,
715,38.94316667,116.9148,,+0800,-,http://aqicn.org/city/tianjin/beiweierlu/,,,,,,,,,,,,
716,39.07846667,117.0901667,2019-10-06 13:00:00,+08:00,70,https://aqicn.org/city/tianjin/haitaifazhanerlu,,pm25,5.5,,,,,21,70,,2.1,
717,39.15106667,117.3747667,2019-10-06 13:00:00,+08:00,65,https://aqicn.org/city/tianjin/hangtianlu,,pm25,4.6,,,,,20,65,,5.1,
718,39.15875,117.7641667,2019-10-06 13:00:00,+08:00,78,https://aqicn.org/city/tianjin/hanbeilu,,pm25,6.4,,,,,34,78,,3.6,
719,38.84516667,116.7794167,2019-10-06 13:00:00,+08:00,50,https://aqicn.org/city/tianjin/guangandao,,pm25,3.7,,,,,20,50,,5.1,
720,39.51626667,117.3431167,2019-10-06 13:00:00,+08:00,87,https://aqicn.org/city/tianjin/baobaigonglu,,pm25,5.5,,,,,27,87,,1.6,
721,30.246,120.128,2019-10-06 12:00:00,+08:00,42,https://aqicn.org/city/zhejiang/hangzhoushi/wolongqiao,,pm25,4.6,,,17.5,,31,42,,3.1,
722,30.288,120.171,2019-10-06 12:00:00,+08:00,50,https://aqicn.org/city/zhejiang/hangzhoushi/chaohuiwuqu,,pm25,4.6,,,18.7,,34,50,,4.6,
723,30.21,120.210833,2019-10-06 12:00:00,+08:00,50,https://aqicn.org/city/zhejiang/hangzhoushi/binjiang,,pm25,4.6,,,21.6,,31,50,,3.6,
724,30.31194444,120.1197222,2019-10-06 12:00:00,+08:00,34,https://aqicn.org/city/zhejiang/hangzhoushi/hemuxiaoxue,,pm10,5.5,,,20.8,,34,34,,3.1,
725,30.268,120.193,2019-10-06 12:00:00,+08:00,68,https://aqicn.org/city/zhejiang/hangzhoushi/zhejiangnongda,,pm25,6.4,,,22,,30,68,,2.6,
726,30.30583333,120.3480556,2019-10-06 12:00:00,+08:00,46,https://aqicn.org/city/zhejiang/hangzhoushi/xiasha,,pm25,5.5,,,76.7,,29,46,,3.1,
